{"address":"691 Richmond Rd","attributes":{"BikeParking":true,"BusinessParking":{"garage":false,"lot":true,"street":false,"valet":false,"validated":false},"RestaurantsPriceRange2":2,"WheelchairAccessible":true},"business_id":"YDf95gJZaq05wvo7hTQbbQ","categories":["Shopping","Shopping Centers"],"city":"Richmond Heights","hours":{"Friday":"10:00-21:00","Monday":"10:00-21:00","Saturday":"10:00-21:00","Sunday":"11:00-18:00","Thursday":"10:00-21:00","Tuesday":"10:00-21:00","Wednesday":"10:00-21:00"},"is_open":1,"latitude":41.5417162,"longitude":-81.4931165,"name":"Richmond Town Square","neighborhood":"","postal_code":"44143","review_count":17,"stars":2.0,"state":"OH"}
{"address":"2824 Milton Rd","attributes":{"Ambience":{"casual":false,"classy":false,"divey":false,"hipster":false,"intimate":false,"romantic":false,"touristy":false,"trendy":false,"upscale":false},"BusinessAcceptsCreditCards":false,"GoodForKids":true,"GoodForMeal":{"breakfast":false,"brunch":false,"dessert":false,"dinner":false,"latenight":false,"lunch":false},"HasTV":false,"NoiseLevel":"average","OutdoorSeating":false,"RestaurantsAttire":"casual","RestaurantsDelivery":true,"RestaurantsGoodForGroups":true,"RestaurantsPriceRange2":2,"RestaurantsReservations":false,"RestaurantsTakeOut":true},"business_id":"mLwM-h2YhXl2NCgdS84_Bw","categories":["Food","Soul Food","Convenience Stores","Restaurants"],"city":"Charlotte","hours":{"Friday":"10:00-22:00","Monday":"10:00-22:00","Saturday":"10:00-22:00","Sunday":"10:00-22:00","Thursday":"10:00-22:00","Tuesday":"10:00-22:00","Wednesday":"10:00-22:00"},"is_open":0,"latitude":35.23687,"longitude":-80.7419759,"name":"South Florida Style Chicken & Ribs","neighborhood":"Eastland","postal_code":"28215","review_count":4,"stars":4.5,"state":"NC"}
{"address":"337 Danforth Avenue","attributes":{"BikeParking":true,"BusinessAcceptsCreditCards":true,"BusinessParking":{"garage":false,"lot":false,"street":true,"valet":false,"validated":false},"OutdoorSeating":false,"RestaurantsPriceRange2":2,"WheelchairAccessible":true,"WiFi":"no"},"business_id":"v2WhjAB3PIBA8J8VxG3wEg","categories":["Food","Coffee & Tea"],"city":"Toronto","hours":{"Friday":"10:00-19:00","Monday":"10:00-19:00","Saturday":"10:00-18:00","Sunday":"12:00-17:00","Thursday":"10:00-19:00","Tuesday":"10:00-19:00","Wednesday":"10:00-19:00"},"is_open":0,"latitude":43.6771258,"longitude":-79.3532848,"name":"The Tea Emporium","neighborhood":"Riverdale","postal_code":"M4K 1N7","review_count":7,"stars":4.5,"state":"ON"}
{"address":"7702 E Doubletree Ranch Rd, Ste 300","attributes":{},"business_id":"CVtCbSB1zUcUWg-9TNGTuQ","categories":["Professional Services","Matchmakers"],"city":"Scottsdale","hours":{"Friday":"9:00-17:00","Monday":"9:00-17:00","Thursday":"9:00-17:00","Tuesday":"9:00-17:00","Wednesday":"9:00-17:00"},"is_open":1,"latitude":33.5650816,"longitude":-111.9164003,"name":"TRUmatch","neighborhood":"","postal_code":"85258","review_count":3,"stars":3.0,"state":"AZ"}
{"address":"4719 N 20Th St","attributes":{"Alcohol":"none","Ambience":{"casual":false,"classy":false,"divey":false,"hipster":false,"intimate":false,"romantic":false,"touristy":false,"trendy":false,"upscale":false},"BikeParking":true,"BusinessAcceptsCreditCards":true,"BusinessParking":{"garage":false,"lot":false,"street":false,"valet":false,"validated":false},"Caters":true,"GoodForKids":true,"GoodForMeal":{"breakfast":false,"brunch":false,"dessert":false,"dinner":false,"latenight":false,"lunch":false},"HasTV":false,"NoiseLevel":"quiet","OutdoorSeating":false,"RestaurantsAttire":"casual","RestaurantsDelivery":false,"RestaurantsGoodForGroups":true,"RestaurantsPriceRange2":1,"RestaurantsReservations":false,"RestaurantsTableService":false,"RestaurantsTakeOut":true,"WiFi":"no"},"business_id":"duHFBe87uNSXImQmvBh87Q","categories":["Sandwiches","Restaurants"],"city":"Phoenix","hours":{},"is_open":0,"latitude":33.5059283,"longitude":-112.0388474,"name":"Blimpie","neighborhood":"","postal_code":"85016","review_count":10,"stars":4.5,"state":"AZ"}
{"address":"2017 E Camelback Rd","attributes":{"BikeParking":true,"BusinessAcceptsCreditCards":true,"BusinessParking":{"garage":false,"lot":true,"street":false,"valet":false,"validated":false},"RestaurantsPriceRange2":2},"business_id":"uUEMrhJiL1a1pCA_I1SU7Q","categories":["Shopping","Tobacco Shops"],"city":"Phoenix","hours":{"Friday":"10:00-21:00","Monday":"10:00-20:00","Saturday":"10:00-21:00","Sunday":"10:00-19:00","Thursday":"10:00-20:00","Tuesday":"10:00-20:00","Wednesday":"10:00-20:00"},"is_open":0,"latitude":33.5080678,"longitude":-112.0375524,"name":"Baxter's Cigars","neighborhood":"","postal_code":"85016","review_count":35,"stars":5.0,"state":"AZ"}
{"address":"4425 N 24th St, Ste 125","attributes":{"AcceptsInsurance":true,"BusinessAcceptsCreditCards":true,"ByAppointmentOnly":true},"business_id":"2eJEUJIP54tex7T9YOcLSw","categories":["Chiropractors","Health & Medical"],"city":"Phoenix","hours":{"Friday":"9:00-12:00","Monday":"14:30-17:00","Thursday":"14:00-19:00","Tuesday":"14:00-19:00","Wednesday":"14:30-17:00"},"is_open":1,"latitude":33.5028476,"longitude":-112.012696,"name":"Back-Health Chiropractic","neighborhood":"","postal_code":"85016","review_count":19,"stars":5.0,"state":"AZ"}
{"address":"5770 Butler St","attributes":{"BusinessAcceptsCreditCards":true},"business_id":"fEylCY3UEH8YJ0Xa7lu6lA","categories":["Automotive","Oil Change Stations","Car Wash","Auto Detailing"],"city":"Pittsburgh","hours":{"Friday":"8:00-17:00","Monday":"8:00-17:00","Saturday":"8:00-17:00","Sunday":"8:00-16:30","Thursday":"8:00-17:00","Tuesday":"8:00-17:00","Wednesday":"8:00-17:00"},"is_open":1,"latitude":40.4859391,"longitude":-79.9437273,"name":"Auto Bathouse","neighborhood":"Lawrenceville","postal_code":"15201","review_count":16,"stars":2.5,"state":"PA"}
{"address":"3220 Washington Rd","attributes":{"BikeParking":true,"BusinessAcceptsCreditCards":true,"BusinessParking":{"garage":false,"lot":true,"street":false,"valet":false,"validated":false},"ByAppointmentOnly":false,"DogsAllowed":true,"RestaurantsPriceRange2":2,"WheelchairAccessible":true},"business_id":"kFtuYklkAIlmYw8RZAieGw","categories":["Jewelry Repair","Gold Buyers","Local Services","Shopping","Appraisal Services","Jewelry"],"city":"McMurray","hours":{"Friday":"10:00-18:00","Monday":"10:00-18:00","Saturday":"10:00-16:00","Thursday":"10:00-20:00","Tuesday":"10:00-18:00","Wednesday":"10:00-20:00"},"is_open":1,"latitude":40.2904976,"longitude":-80.1100212,"name":"JAB Jewelry Designs","neighborhood":"","postal_code":"15317","review_count":7,"stars":5.0,"state":"PA"}
{"address":"1425 S Higley Rd, Ste 103","attributes":{"AcceptsInsurance":true,"BusinessAcceptsCreditCards":true,"ByAppointmentOnly":true},"business_id":"NqiQdFa93wzUJGo29NbTPQ","categories":["Health & Medical","Optometrists"],"city":"Gilbert","hours":{"Friday":"7:30-11:00","Monday":"7:30-17:00","Thursday":"7:30-17:00","Tuesday":"7:30-17:00","Wednesday":"7:30-17:00"},"is_open":1,"latitude":33.3245392,"longitude":-111.7204486,"name":"Neighborhood Vision Center","neighborhood":"","postal_code":"85296","review_count":8,"stars":5.0,"state":"AZ"}
{"address":"11022 W Charleston Blvd","attributes":{"BikeParking":true,"BusinessAcceptsCreditCards":true,"BusinessParking":{"garage":true,"lot":false,"street":false,"valet":false,"validated":false},"GoodForKids":true},"business_id":"N9BN9ldVl1FNzcB9_eAstw","categories":["Bowling","Active Life"],"city":"Las Vegas","hours":{},"is_open":1,"latitude":36.1590984,"longitude":-115.3379148,"name":"Red Rock Bowling UYE Part 2","neighborhood":"Summerlin","postal_code":"89135","review_count":13,"stars":4.5,"state":"NV"}
{"address":"9393 N 90th St, Ste 112","attributes":{"BikeParking":true,"BusinessAcceptsCreditCards":true,"BusinessParking":{"garage":false,"lot":true,"street":false,"valet":false,"validated":false},"ByAppointmentOnly":false,"HairSpecializesIn":{"africanamerican":false,"asian":false,"coloring":false,"curly":false,"extensions":false,"kids":false,"perms":false,"straightperms":false},"RestaurantsPriceRange2":2,"WheelchairAccessible":true},"business_id":"6s3z3TlpHOIecuSyPEOp7A","categories":["Barbers","Men's Hair Salons","Hair Removal","Waxing","Beauty & Spas","Hair Salons"],"city":"Scottsdale","hours":{"Friday":"9:00-19:00","Monday":"10:00-18:00","Saturday":"9:00-18:00","Thursday":"10:00-18:00","Tuesday":"10:00-18:00","Wednesday":"10:00-18:00"},"is_open":0,"latitude":33.5704213907,"longitude":-111.886491962,"name":"Sq Cutz","neighborhood":"","postal_code":"85258","review_count":7,"stars":4.5,"state":"AZ"}
{"address":"9101 E Baseline Rd","attributes":{"BikeParking":true,"BusinessAcceptsCreditCards":true,"BusinessParking":{"garage":false,"lot":true,"street":false,"valet":false,"validated":false},"Caters":true,"RestaurantsDelivery":false,"RestaurantsPriceRange2":2,"RestaurantsTakeOut":true},"business_id":"n33Izvzk_z9_51H6NsQF-A","categories":["Flowers & Gifts","Bakeries","Grocery","Shopping","Food","Florists"],"city":"Mesa","hours":{"Friday":"5:00-0:00","Monday":"5:00-0:00","Saturday":"5:00-0:00","Sunday":"5:00-0:00","Thursday":"5:00-0:00","Tuesday":"5:00-0:00","Wednesday":"5:00-0:00"},"is_open":1,"latitude":33.3774281068,"longitude":-111.638108311,"name":"Safeway","neighborhood":"","postal_code":"85209","review_count":21,"stars":2.0,"state":"AZ"}
{"address":"12417 W Pima St","attributes":{"BusinessAcceptsBitcoin":false,"BusinessAcceptsCreditCards":true,"ByAppointmentOnly":true},"business_id":"m06OZRFTaKKi6U0omfLq4g","categories":["Landscape Architects","Home & Garden","Irrigation","Shopping","Home Services","Artificial Turf","Nurseries & Gardening","Gardeners","Landscaping","Contractors"],"city":"Avondale","hours":{"Friday":"8:00-17:00","Monday":"8:00-17:00","Saturday":"9:00-15:00","Thursday":"8:00-17:00","Tuesday":"8:00-17:00","Wednesday":"8:00-17:00"},"is_open":1,"latitude":33.431335,"longitude":-112.325863,"name":"Artificial Grass Masters","neighborhood":"","postal_code":"85323","review_count":41,"stars":4.5,"state":"AZ"}
{"address":"9616 E Independence Blvd","attributes":{"Alcohol":"full_bar","Ambience":{"casual":false,"classy":false,"divey":false,"hipster":false,"intimate":false,"romantic":false,"touristy":false,"trendy":false,"upscale":false},"BikeParking":true,"BusinessAcceptsCreditCards":true,"BusinessParking":{"garage":false,"lot":false,"street":false,"valet":false,"validated":false},"Caters":false,"CoatCheck":false,"DriveThru":false,"GoodForDancing":false,"GoodForKids":true,"GoodForMeal":{"breakfast":false,"brunch":false,"dessert":false,"dinner":false,"latenight":false,"lunch":true},"HappyHour":true,"HasTV":true,"Music":{"background_music":false,"dj":false,"jukebox":false,"karaoke":false,"live":false,"no_music":false,"video":false},"NoiseLevel":"average","OutdoorSeating":false,"RestaurantsAttire":"casual","RestaurantsDelivery":false,"RestaurantsGoodForGroups":true,"RestaurantsPriceRange2":2,"RestaurantsReservations":false,"RestaurantsTableService":false,"RestaurantsTakeOut":true,"WiFi":"free"},"business_id":"SDMRxmcKPNt1AHPBKqO64Q","categories":["Burgers","Bars","Restaurants","Sports Bars","Nightlife","American (Traditional)"],"city":"Matthews","hours":{"Friday":"11:00-1:00","Monday":"11:00-0:00","Saturday":"11:00-1:00","Sunday":"11:00-0:00","Thursday":"11:00-0:00","Tuesday":"11:00-0:00","Wednesday":"11:00-0:00"},"is_open":1,"latitude":35.135196,"longitude":-80.7146829,"name":"Applebee's","neighborhood":"","postal_code":"28105","review_count":21,"stars":2.0,"state":"NC"}
{"address":"190 E Dallas Rd","attributes":{"Alcohol":"none","OutdoorSeating":false,"RestaurantsAttire":"casual"},"business_id":"iFEiMJoEqyB9O8OUNSdLzA","categories":["Chinese","Restaurants"],"city":"Stanley","hours":{"Friday":"11:30-22:30","Monday":"11:30-22:00","Saturday":"11:30-22:30","Sunday":"11:30-22:00","Thursday":"11:30-22:00","Tuesday":"11:30-22:00","Wednesday":"11:30-22:00"},"is_open":1,"latitude":35.3550853,"longitude":-81.0872676,"name":"China Garden","neighborhood":"","postal_code":"28164","review_count":3,"stars":3.0,"state":"NC"}
{"address":"62 S Ctr","attributes":{"BusinessAcceptsCreditCards":true,"ByAppointmentOnly":true},"business_id":"qrAHt4wWRYWj1sEjxq574A","categories":["Contractors","Roofing","Home Services"],"city":"Mesa","hours":{"Friday":"7:00-19:00","Monday":"7:00-19:00","Saturday":"9:00-12:00","Thursday":"7:00-19:00","Tuesday":"7:00-19:00","Wednesday":"7:00-19:00"},"is_open":1,"latitude":33.4132187,"longitude":-111.8314886,"name":"Beach Ventures Roofing","neighborhood":"","postal_code":"85210","review_count":3,"stars":3.5,"state":"AZ"}
{"address":"2128 Warrensville Ctr Rd","attributes":{"BusinessAcceptsCreditCards":true},"business_id":"jqp5TibmgJZVFKHTp3XfqQ","categories":["Car Wash","Automotive","Auto Detailing"],"city":"Cleveland","hours":{"Friday":"8:30-18:00","Monday":"8:30-18:00","Saturday":"8:30-18:00","Sunday":"15:00-18:00","Thursday":"8:30-18:00","Tuesday":"8:30-18:00","Wednesday":"8:30-18:00"},"is_open":1,"latitude":41.5018198,"longitude":-81.536776,"name":"Alpaul Automobile Wash","neighborhood":"","postal_code":"44121","review_count":25,"stars":3.0,"state":"OH"}
{"address":"3710 Payne Ave","attributes":{"BikeParking":true,"BusinessAcceptsCreditCards":true,"BusinessParking":{"garage":false,"lot":true,"street":false,"valet":false,"validated":false},"Caters":true,"OutdoorSeating":false,"RestaurantsDelivery":false,"RestaurantsPriceRange2":1,"RestaurantsTakeOut":true,"WheelchairAccessible":true,"WiFi":"free"},"business_id":"1cLXGXThDYZ5WK_KpBLtkw","categories":["Food","Bakeries","Coffee & Tea"],"city":"Cleveland","hours":{"Friday":"9:00-20:00","Monday":"9:00-20:00","Saturday":"9:00-20:00","Sunday":"9:00-20:00","Thursday":"9:00-20:00","Wednesday":"9:00-20:00"},"is_open":1,"latitude":41.5094078,"longitude":-81.6621618,"name":"Koko Bakery","neighborhood":"Goodrich Kirtland","postal_code":"44114","review_count":162,"stars":4.0,"state":"OH"}
{"address":"2385 E Windmill Ln","attributes":{},"business_id":"BmSJ6C7Y9s3tHotRetVbmA","categories":["Financial Services","Banks & Credit Unions"],"city":"Las Vegas","hours":{"Friday":"10:00-19:00","Monday":"10:00-19:00","Saturday":"10:00-16:00","Sunday":"12:00-16:00","Thursday":"10:00-19:00","Tuesday":"10:00-19:00","Wednesday":"10:00-19:00"},"is_open":1,"latitude":36.0404133,"longitude":-115.119104,"name":"U.S. Bank","neighborhood":"Southeast","postal_code":"89123","review_count":3,"stars":3.5,"state":"NV"}
{"address":"10515 B Centrum Parkway","attributes":{"BusinessAcceptsCreditCards":true},"business_id":"Av-ODv7-hV12If005Pj6wA","categories":["Automotive","Auto Repair","Tires","Oil Change Stations"],"city":"Pineville","hours":{"Friday":"8:00-18:00","Monday":"8:00-18:00","Saturday":"8:00-17:00","Thursday":"8:00-18:00","Tuesday":"8:00-18:00","Wednesday":"8:00-18:00"},"is_open":1,"latitude":35.089534,"longitude":-80.876679,"name":"Precision Tune Auto Care","neighborhood":"","postal_code":"28134","review_count":14,"stars":3.0,"state":"NC"}
{"address":"4759 Liberty Ave","attributes":{"Alcohol":"none","Ambience":{"casual":false,"classy":false,"divey":true,"hipster":false,"intimate":false,"romantic":false,"touristy":false,"trendy":false,"upscale":false},"BikeParking":true,"BusinessAcceptsCreditCards":true,"BusinessParking":{"garage":false,"lot":false,"street":true,"valet":false,"validated":false},"Caters":false,"GoodForKids":true,"GoodForMeal":{"breakfast":true,"brunch":false,"dessert":false,"dinner":false,"latenight":false,"lunch":false},"HasTV":false,"NoiseLevel":"loud","OutdoorSeating":false,"RestaurantsAttire":"casual","RestaurantsDelivery":false,"RestaurantsGoodForGroups":false,"RestaurantsPriceRange2":1,"RestaurantsReservations":false,"RestaurantsTableService":true,"RestaurantsTakeOut":true,"WiFi":"no"},"business_id":"HmI9nhgOkrXlUr6KZGZZew","categories":["Sandwiches","Restaurants","Italian","Diners","Breakfast & Brunch","Mexican"],"city":"Pittsburgh","hours":{"Saturday":"8:00-12:00","Sunday":"8:00-12:00","Thursday":"8:00-12:00","Tuesday":"8:00-12:00"},"is_open":1,"latitude":40.4613503,"longitude":-79.9481126,"name":"Rocky's","neighborhood":"Bloomfield","postal_code":"15224","review_count":15,"stars":3.0,"state":"PA"}
{"address":"7070 Saint Barbara Boulevard","attributes":{"BusinessAcceptsCreditCards":true,"GoodForKids":true,"HasTV":true,"NoiseLevel":"average","OutdoorSeating":true,"RestaurantsAttire":"casual","RestaurantsDelivery":false,"RestaurantsGoodForGroups":true,"RestaurantsPriceRange2":2,"RestaurantsReservations":true,"RestaurantsTakeOut":true,"WiFi":"free"},"business_id":"qnpvw-uQyRn9nlClWFK9aA","categories":["Chicken Wings","Restaurants"],"city":"Mississauga","hours":{},"is_open":1,"latitude":43.6392362,"longitude":-79.716199,"name":"Wild Wing","neighborhood":"Meadowvale Village","postal_code":"L5W 0E6","review_count":6,"stars":2.5,"state":"ON"}
{"address":"1111 N Gilbert Rd, Ste 212A","attributes":{"ByAppointmentOnly":true},"business_id":"igcy3ojJbgbpS8K70gvFQg","categories":["Life Coach","Health & Medical","Professional Services","Reiki","Naturopathic/Holistic","Hypnosis/Hypnotherapy","Counseling & Mental Health","Doctors"],"city":"Gilbert","hours":{},"is_open":1,"latitude":33.3702018,"longitude":-111.7894471,"name":"Direct Mindpower","neighborhood":"","postal_code":"85234","review_count":33,"stars":5.0,"state":"AZ"}
{"address":"","attributes":{},"business_id":"5Ghe0btvM7tXqANnhNB5eg","categories":["Advertising","Marketing","Professional Services","Local Services","Business Consulting"],"city":"Mesa","hours":{"Friday":"8:00-17:00","Monday":"8:00-17:00","Saturday":"8:00-17:00","Sunday":"8:00-17:00","Thursday":"8:00-17:00","Tuesday":"8:00-17:00","Wednesday":"8:00-17:00"},"is_open":1,"latitude":33.3778915405,"longitude":-111.635017395,"name":"Premiere Social Media","neighborhood":"","postal_code":"85209","review_count":8,"stars":5.0,"state":"AZ"}
{"address":"43 Leith Street","attributes":{"Alcohol":"full_bar","Ambience":{"casual":false,"classy":false,"hipster":false,"intimate":false,"romantic":false,"touristy":false,"trendy":false,"upscale":false},"BestNights":{"friday":false,"monday":false,"saturday":true,"sunday":false,"thursday":false,"tuesday":false,"wednesday":false},"BikeParking":true,"BusinessAcceptsCreditCards":true,"BusinessParking":{"garage":false,"lot":false,"street":false,"valet":false},"CoatCheck":false,"DogsAllowed":false,"GoodForDancing":false,"HappyHour":false,"HasTV":true,"Music":{"background_music":false,"dj":false,"jukebox":true,"karaoke":false,"live":false,"no_music":false,"video":false},"NoiseLevel":"loud","OutdoorSeating":false,"RestaurantsGoodForGroups":true,"RestaurantsPriceRange2":2,"Smoking":"outdoor","WheelchairAccessible":false},"business_id":"vvB8ebrUsjfNqwWjk4G4OQ","categories":["Pubs","Nightlife","Bars"],"city":"Edinburgh","hours":{"Friday":"12:00-1:00","Monday":"12:00-1:00","Saturday":"12:00-1:00","Sunday":"12:30-1:00","Thursday":"12:00-1:00","Tuesday":"12:00-1:00","Wednesday":"12:00-1:00"},"is_open":1,"latitude":55.9544861402,"longitude":-3.1871370799,"name":"Black Bull Tavern","neighborhood":"","postal_code":"EH1 3AT","review_count":14,"stars":4.0,"state":"EDH"}
{"address":"7 Hart House Circle","attributes":{"GoodForKids":true},"business_id":"l9ABoPi9j_pH9588tk0-6w","categories":["Arts & Entertainment","Performing Arts"],"city":"Toronto","hours":{},"is_open":1,"latitude":43.6636694,"longitude":-79.3946869,"name":"Hart House Theatre","neighborhood":"University of Toronto","postal_code":"M5S 3H3","review_count":8,"stars":4.0,"state":"ON"}
{"address":"1663 St-Denis","attributes":{"BikeParking":true,"BusinessAcceptsCreditCards":true,"BusinessParking":{"garage":false,"lot":false,"street":true,"valet":false,"validated":false},"RestaurantsPriceRange2":2},"business_id":"eW9vw2fE_6EuTWErZRo3mQ","categories":["Toy Stores","Hobby Shops","Shopping"],"city":"Montréal","hours":{"Friday":"12:00-21:00","Monday":"12:00-21:00","Saturday":"12:00-17:00","Sunday":"12:00-17:00","Thursday":"12:00-21:00","Tuesday":"12:00-21:00","Wednesday":"12:00-21:00"},"is_open":1,"latitude":45.5152786,"longitude":-73.5635483,"name":"Chez Geeks Hobby Gaming Store","neighborhood":"Ville-Marie","postal_code":"H2X 3K4","review_count":3,"stars":4.0,"state":"QC"}
{"address":"6021 Centre Ave","attributes":{"BikeParking":true,"BusinessAcceptsCreditCards":true,"BusinessParking":{"garage":false,"lot":false,"street":true,"valet":false,"validated":false},"ByAppointmentOnly":false,"GoodForKids":true,"RestaurantsPriceRange2":1},"business_id":"ZFGYEsHFo6G4KtlTpYmMRQ","categories":["Men's Hair Salons","Hair Stylists","Beauty & Spas","Hair Salons"],"city":"Pittsburgh","hours":{"Friday":"9:00-21:00","Monday":"9:00-21:00","Saturday":"9:00-18:00","Sunday":"10:00-17:00","Thursday":"9:00-21:00","Tuesday":"9:00-21:00","Wednesday":"9:00-21:00"},"is_open":1,"latitude":40.4602389,"longitude":-79.9246243,"name":"Great Clips","neighborhood":"Shadyside","postal_code":"15206","review_count":10,"stars":3.5,"state":"PA"}
{"address":"15323 N. Scottsdale Rd, Ste 110","attributes":{"BusinessAcceptsCreditCards":true,"ByAppointmentOnly":false},"business_id":"ATsUb_sLzDSZkIoBdoO_mg","categories":["Home Services","Shades & Blinds"],"city":"Scottsdale","hours":{"Friday":"10:00-20:00","Monday":"10:00-20:00","Saturday":"10:00-20:00","Sunday":"12:00-18:00","Thursday":"10:00-20:00","Tuesday":"10:00-20:00","Wednesday":"10:00-20:00"},"is_open":1,"latitude":33.623655,"longitude":-111.925137,"name":"The Shade Store®","neighborhood":"","postal_code":"85254","review_count":11,"stars":3.5,"state":"AZ"}
{"address":"21609 Center Ridge Rd","attributes":{"BusinessAcceptsCreditCards":true,"BusinessParking":{"garage":false,"lot":true,"street":false,"valet":false,"validated":false},"ByAppointmentOnly":false,"GoodForKids":true,"RestaurantsPriceRange2":3},"business_id":"-PtTGvWsckUL8tTutHr6Ew","categories":["Beauty & Spas","Hair Salons"],"city":"Rocky River","hours":{"Friday":"10:00-19:00","Monday":"10:00-19:00","Saturday":"9:00-17:30","Sunday":"10:00-16:00","Thursday":"10:00-19:00","Tuesday":"10:00-19:00","Wednesday":"10:00-19:00"},"is_open":1,"latitude":41.459468,"longitude":-81.8587383,"name":"Snip-its Rocky River","neighborhood":"","postal_code":"44116","review_count":18,"stars":2.5,"state":"OH"}
{"address":"4502 East Towne Blvd","attributes":{"Alcohol":"full_bar","Ambience":{"casual":true,"classy":false,"divey":false,"hipster":false,"intimate":false,"romantic":false,"touristy":false,"trendy":false,"upscale":false},"BikeParking":true,"BusinessAcceptsCreditCards":true,"BusinessParking":{"garage":false,"lot":true,"street":false,"valet":false,"validated":false},"Caters":false,"GoodForKids":true,"GoodForMeal":{"breakfast":false,"brunch":false,"dessert":false,"dinner":true,"latenight":false,"lunch":false},"HasTV":true,"NoiseLevel":"average","OutdoorSeating":false,"RestaurantsAttire":"casual","RestaurantsDelivery":false,"RestaurantsGoodForGroups":true,"RestaurantsPriceRange2":2,"RestaurantsReservations":true,"RestaurantsTableService":true,"RestaurantsTakeOut":true,"WheelchairAccessible":true,"WiFi":"no"},"business_id":"TXiEgINSZ75d3EtvLvkc4Q","categories":["Restaurants","Seafood","American (Traditional)"],"city":"Madison","hours":{"Friday":"11:00-23:00","Monday":"11:00-22:00","Saturday":"11:00-23:00","Sunday":"11:00-22:00","Thursday":"11:00-22:00","Tuesday":"11:00-22:00","Wednesday":"11:00-22:00"},"is_open":1,"latitude":43.128034,"longitude":-89.307157,"name":"Red Lobster","neighborhood":"","postal_code":"53704","review_count":45,"stars":3.0,"state":"WI"}
{"address":"1794 Liverpool Road","attributes":{"Alcohol":"full_bar","Ambience":{"casual":true,"classy":false,"hipster":false,"intimate":false,"romantic":false,"touristy":false,"trendy":false,"upscale":false},"BikeParking":true,"BusinessAcceptsCreditCards":true,"BusinessParking":{"garage":false,"lot":true,"street":false,"valet":false,"validated":false},"Caters":false,"DriveThru":false,"GoodForKids":true,"GoodForMeal":{"breakfast":false,"brunch":false,"dessert":false,"dinner":true,"latenight":false,"lunch":true},"HasTV":false,"NoiseLevel":"average","OutdoorSeating":false,"RestaurantsAttire":"casual","RestaurantsDelivery":false,"RestaurantsGoodForGroups":true,"RestaurantsPriceRange2":2,"RestaurantsReservations":true,"RestaurantsTableService":true,"RestaurantsTakeOut":true,"WiFi":"no"},"business_id":"KW4y7uDGjVfU3ClkEjIGhg","categories":["Burgers","Restaurants"],"city":"Pickering","hours":{},"is_open":1,"latitude":43.8343514,"longitude":-79.0901353,"name":"The Works","neighborhood":"","postal_code":"L1V 1V9","review_count":41,"stars":3.0,"state":"ON"}
{"address":"1424 S Stapley Dr","attributes":{"ByAppointmentOnly":true,"GoodForKids":true},"business_id":"s_6WYPw3t50el2fSuh9k8w","categories":["Local Services","Health & Medical","Community Service/Non-Profit","Hiking","Behavior Analysts","Active Life","Counseling & Mental Health"],"city":"Mesa","hours":{"Friday":"8:00-17:00","Monday":"8:00-17:00","Thursday":"8:00-17:00","Tuesday":"8:00-17:00","Wednesday":"8:00-17:00"},"is_open":1,"latitude":33.3891805,"longitude":-111.8058306,"name":"Anasazi Foundation","neighborhood":"","postal_code":"85204","review_count":9,"stars":4.5,"state":"AZ"}
{"address":"30 High Tech Rd","attributes":{"Alcohol":"full_bar","Ambience":{"casual":true,"classy":false,"hipster":false,"intimate":false,"romantic":false,"touristy":false,"trendy":true,"upscale":false},"BestNights":{"friday":false,"monday":false,"saturday":true,"sunday":false,"thursday":false,"tuesday":false,"wednesday":false},"BikeParking":true,"BusinessAcceptsCreditCards":true,"BusinessParking":{"garage":false,"lot":false,"street":true,"valet":false,"validated":false},"Caters":false,"CoatCheck":false,"GoodForDancing":false,"GoodForKids":true,"GoodForMeal":{"breakfast":false,"brunch":true,"dessert":true,"dinner":false,"latenight":false,"lunch":false},"HappyHour":true,"HasTV":true,"Music":{"background_music":false,"dj":false,"jukebox":false,"karaoke":false,"live":false,"no_music":false,"video":false},"NoiseLevel":"average","OutdoorSeating":true,"RestaurantsAttire":"casual","RestaurantsDelivery":false,"RestaurantsGoodForGroups":true,"RestaurantsPriceRange2":2,"RestaurantsReservations":true,"RestaurantsTableService":true,"RestaurantsTakeOut":true,"Smoking":"no","WiFi":"free"},"business_id":"reWc1g65PNZnKz_Ub9QKOQ","categories":["Comfort Food","Canadian (New)","Restaurants","Bars","Nightlife","American (Traditional)"],"city":"Richmond Hill","hours":{"Friday":"11:00-1:00","Monday":"11:00-23:00","Saturday":"10:00-1:00","Sunday":"10:00-23:00","Thursday":"11:00-0:00","Tuesday":"11:00-23:00","Wednesday":"11:00-0:00"},"is_open":1,"latitude":43.8419930049,"longitude":-79.4293430602,"name":"Milestones Restaurants","neighborhood":"","postal_code":"L4B 4L9","review_count":51,"stars":2.5,"state":"ON"}
{"address":"280 W Beaver Creek Road, Unit 30","attributes":{"Alcohol":"none","Ambience":{"casual":false,"classy":false,"hipster":false,"intimate":false,"romantic":false,"touristy":false,"trendy":false,"upscale":false},"GoodForKids":true,"GoodForMeal":{"breakfast":false,"brunch":false,"dessert":false,"dinner":false,"latenight":false,"lunch":false},"HasTV":true,"OutdoorSeating":false,"RestaurantsAttire":"casual","RestaurantsDelivery":false,"RestaurantsGoodForGroups":true,"RestaurantsPriceRange2":2,"RestaurantsReservations":false,"RestaurantsTakeOut":true,"WiFi":"no"},"business_id":"L1XHTn7S-6har9UGAPjcWQ","categories":["Taiwanese","Food","Coffee & Tea","Restaurants"],"city":"Richmond Hill","hours":{},"is_open":1,"latitude":43.8434745276,"longitude":-79.3876864761,"name":"Papa Chang's Tea Bistro","neighborhood":"","postal_code":"L4B 3Z1","review_count":4,"stars":4.0,"state":"ON"}
{"address":"2259 Deming Way","attributes":{"Alcohol":"full_bar","Ambience":{"casual":true,"classy":false,"divey":false,"hipster":false,"intimate":false,"romantic":false,"touristy":false,"trendy":false,"upscale":false},"BYOB":false,"BYOBCorkage":"no","BestNights":{"friday":false,"monday":false,"saturday":false,"sunday":false,"thursday":true,"tuesday":true,"wednesday":false},"BikeParking":true,"BusinessAcceptsCreditCards":true,"BusinessParking":{"garage":false,"lot":true,"street":true,"valet":false,"validated":false},"Caters":true,"CoatCheck":false,"DriveThru":true,"GoodForDancing":false,"GoodForKids":true,"GoodForMeal":{"breakfast":false,"brunch":false,"dessert":false,"dinner":true,"latenight":false,"lunch":false},"HappyHour":true,"HasTV":true,"Music":{"background_music":false,"dj":false,"jukebox":false,"karaoke":false,"live":false,"no_music":false,"video":false},"NoiseLevel":"average","OutdoorSeating":true,"RestaurantsAttire":"casual","RestaurantsDelivery":false,"RestaurantsGoodForGroups":true,"RestaurantsPriceRange2":2,"RestaurantsReservations":true,"RestaurantsTableService":true,"RestaurantsTakeOut":true,"Smoking":"outdoor","WheelchairAccessible":true,"WiFi":"free"},"business_id":"PV9CdNFDOX4_zWm3Sy3W8g","categories":["Burgers","Chicken Wings","Bars","Restaurants","American (Traditional)","Nightlife"],"city":"Middleton","hours":{"Friday":"11:00-0:00","Monday":"11:00-23:00","Saturday":"10:00-0:00","Sunday":"10:00-22:00","Thursday":"11:00-23:00","Tuesday":"11:00-23:00","Wednesday":"11:00-23:00"},"is_open":1,"latitude":43.097806,"longitude":-89.519217,"name":"Quaker Steak & Lube","neighborhood":"","postal_code":"53562","review_count":117,"stars":3.0,"state":"WI"}
{"address":"26100 Cedar Rd","attributes":{"BikeParking":true,"BusinessAcceptsCreditCards":true,"BusinessParking":{"garage":false,"lot":false,"street":false,"valet":false,"validated":false},"RestaurantsPriceRange2":3},"business_id":"8E5l83iGubQmtivb24TL_Q","categories":["Fashion","Shoe Stores","Jewelry","Accessories","Women's Clothing","Shopping","Men's Clothing","Department Stores"],"city":"Beachwood","hours":{"Friday":"10:00-21:00","Monday":"10:00-21:00","Saturday":"10:00-21:00","Sunday":"12:00-18:00","Thursday":"10:00-21:00","Tuesday":"10:00-21:00","Wednesday":"10:00-21:00"},"is_open":1,"latitude":41.4994869262,"longitude":-81.4941790329,"name":"Saks Fifth Avenue","neighborhood":"","postal_code":"44122","review_count":25,"stars":3.0,"state":"OH"}
{"address":"1801 Gerrard Street E","attributes":{"Alcohol":"full_bar","BestNights":{"friday":true,"monday":true,"saturday":false,"sunday":false,"thursday":false,"tuesday":false,"wednesday":false},"BusinessParking":{"garage":false,"lot":false,"street":false,"valet":false,"validated":false},"CoatCheck":false,"GoodForKids":false,"HasTV":true,"RestaurantsAttire":"casual","RestaurantsDelivery":false,"RestaurantsGoodForGroups":false,"RestaurantsPriceRange2":1,"RestaurantsReservations":false,"Smoking":"outdoor"},"business_id":"qim0lD112TkDhm8ZyQlRnA","categories":["Pubs","Restaurants","Bars","Irish","Nightlife"],"city":"Toronto","hours":{"Friday":"14:00-2:00","Monday":"14:00-2:00","Saturday":"14:00-2:00","Sunday":"14:00-2:00","Thursday":"14:00-2:00","Tuesday":"14:00-2:00","Wednesday":"14:00-2:00"},"is_open":0,"latitude":43.6780488,"longitude":-79.3147736,"name":"McCarthy's Irish Pub","neighborhood":"Upper Beach","postal_code":"M4L 2B5","review_count":5,"stars":4.0,"state":"ON"}
{"address":"6162 W Flamingo Rd","attributes":{"AcceptsInsurance":false,"BikeParking":true,"BusinessAcceptsCreditCards":true,"BusinessParking":{"garage":false,"lot":false,"street":false,"valet":false,"validated":false},"ByAppointmentOnly":false,"RestaurantsPriceRange2":1,"WheelchairAccessible":false},"business_id":"xmY0pzNvZKEzuN0XEqeV5w","categories":["Massage","Beauty & Spas","Reflexology","Health & Medical"],"city":"Las Vegas","hours":{"Friday":"10:00-0:00","Monday":"10:00-0:00","Saturday":"10:00-0:00","Sunday":"10:00-0:00","Thursday":"10:00-0:00","Tuesday":"10:00-0:00","Wednesday":"10:00-0:00"},"is_open":1,"latitude":36.115465,"longitude":-115.226764,"name":"QQ Foot Spa","neighborhood":"","postal_code":"89103","review_count":20,"stars":4.5,"state":"NV"}
{"address":"4755 W Flamingo Rd","attributes":{"BusinessAcceptsCreditCards":true},"business_id":"aj1C0D7hniEPpsTidbCQIg","categories":["Auto Insurance","Body Shops","Auto Repair","Insurance","Automotive","Financial Services"],"city":"Las Vegas","hours":{"Friday":"7:30-17:00","Monday":"7:30-17:00","Thursday":"7:30-17:00","Tuesday":"7:30-17:00","Wednesday":"7:30-17:00"},"is_open":1,"latitude":36.115074,"longitude":-115.2056,"name":"Express Collision Center","neighborhood":"","postal_code":"89103","review_count":54,"stars":5.0,"state":"NV"}
{"address":"8050 N 19th Ave","attributes":{"BusinessAcceptsCreditCards":true},"business_id":"9tIYh_c2Yynt2N65epRJ1w","categories":["Local Services","Shipping Centers","Printing Services","Public Services & Government","Notaries","Post Offices"],"city":"Phoenix","hours":{"Friday":"8:00-18:00","Monday":"8:00-18:00","Saturday":"9:00-17:00","Sunday":"11:00-15:00","Thursday":"8:00-18:00","Tuesday":"8:00-18:00","Wednesday":"8:00-18:00"},"is_open":1,"latitude":33.5552131,"longitude":-112.1005387,"name":"The UPS Store","neighborhood":"","postal_code":"85021","review_count":9,"stars":3.0,"state":"AZ"}
{"address":"25 W Warner Rd","attributes":{"Alcohol":"none","Ambience":{"casual":false,"classy":false,"divey":false,"hipster":false,"intimate":false,"romantic":false,"touristy":false,"trendy":false,"upscale":false},"BikeParking":false,"BusinessAcceptsCreditCards":true,"BusinessParking":{"garage":false,"lot":false,"street":false,"valet":false,"validated":false},"Caters":false,"GoodForKids":true,"GoodForMeal":{"breakfast":false,"brunch":false,"dessert":false,"dinner":false,"latenight":false,"lunch":true},"HasTV":false,"NoiseLevel":"quiet","OutdoorSeating":false,"RestaurantsAttire":"casual","RestaurantsDelivery":true,"RestaurantsGoodForGroups":false,"RestaurantsPriceRange2":1,"RestaurantsReservations":false,"RestaurantsTableService":false,"RestaurantsTakeOut":true,"WiFi":"no"},"business_id":"HRFJlSAP_EBU_MpPPmpUDQ","categories":["Chicken Wings","Sandwiches","Restaurants","Pizza"],"city":"Chandler","hours":{"Friday":"10:00-2:00","Monday":"10:00-1:00","Saturday":"10:00-2:00","Sunday":"10:00-1:00","Thursday":"10:00-1:00","Tuesday":"10:00-1:00","Wednesday":"10:00-1:00"},"is_open":1,"latitude":33.3350578,"longitude":-111.8430762,"name":"Domino's Pizza","neighborhood":"","postal_code":"85225","review_count":20,"stars":2.5,"state":"AZ"}
{"address":"170 Westney Road S","attributes":{},"business_id":"5-7EItFT0a7SOlpjwE39_g","categories":["Automotive","Car Dealers","Auto Repair"],"city":"Ajax","hours":{"Friday":"9:00-18:00","Monday":"9:00-21:00","Saturday":"9:00-18:00","Thursday":"9:00-21:00","Tuesday":"9:00-21:00","Wednesday":"9:00-21:00"},"is_open":0,"latitude":43.8443653,"longitude":-79.0381421,"name":"Sisley Hyundai","neighborhood":"","postal_code":"L1S 2C8","review_count":3,"stars":2.5,"state":"ON"}
{"address":"654 Lansdowne Ave","attributes":{"BikeParking":true,"BusinessAcceptsCreditCards":false,"BusinessParking":{"garage":false,"lot":false,"street":true,"valet":false,"validated":false},"RestaurantsDelivery":false,"RestaurantsPriceRange2":1,"RestaurantsTakeOut":true},"business_id":"kEq7eudoX5qdcaSLAq3axw","categories":["Bakeries","Food"],"city":"Toronto","hours":{},"is_open":1,"latitude":43.6624007,"longitude":-79.444706,"name":"Paris Bakery & Pastry","neighborhood":"Wallace Emerson","postal_code":"M6H 3Z5","review_count":16,"stars":3.0,"state":"ON"}
{"address":"700 Lawrence Ave W","attributes":{"BikeParking":true,"BusinessAcceptsCreditCards":true,"BusinessParking":{"garage":false,"lot":true,"street":false,"valet":false,"validated":false},"RestaurantsPriceRange2":2,"RestaurantsTakeOut":true},"business_id":"UZShf6G75npKCCjiHsf46Q","categories":["Food","Grocery"],"city":"North York","hours":{},"is_open":1,"latitude":43.7166569,"longitude":-79.4472576,"name":"Fortinos Supermarket","neighborhood":"","postal_code":"M6A 3B4","review_count":9,"stars":3.5,"state":"ON"}
{"address":"2501 W Happy Valley Rd, Bldg 40","attributes":{"BikeParking":true,"BusinessAcceptsCreditCards":true,"BusinessParking":{"garage":false,"lot":false,"street":false,"valet":false,"validated":false},"ByAppointmentOnly":false,"RestaurantsPriceRange2":2},"business_id":"4irpCt5a5Sa72kIGyTmJ1Q","categories":["Home & Garden","Hardware Stores","Appliances","Home Services","Home Decor","Building Supplies","Shopping"],"city":"Phoenix","hours":{"Friday":"6:00-21:00","Monday":"6:00-21:00","Saturday":"6:00-21:00","Sunday":"8:00-20:00","Thursday":"6:00-21:00","Tuesday":"6:00-21:00","Wednesday":"6:00-21:00"},"is_open":1,"latitude":33.7123683,"longitude":-112.1096688,"name":"Lowe's Home Improvement","neighborhood":"","postal_code":"85085","review_count":29,"stars":3.5,"state":"AZ"}
{"address":"6565 Pearl Rd","attributes":{"BusinessAcceptsCreditCards":true},"business_id":"KhPCS4OAr9po5hMtFhDvmg","categories":["Oil Change Stations","Auto Repair","Automotive","Tires","Motorcycle Repair"],"city":"Parma Heights","hours":{"Friday":"8:00-18:00","Monday":"8:00-20:00","Saturday":"8:00-12:00","Thursday":"8:00-20:00","Tuesday":"8:00-18:00","Wednesday":"8:00-18:00"},"is_open":1,"latitude":41.3830675,"longitude":-81.7760369,"name":"Rad Air Complete Car Care and Tire Centers","neighborhood":"","postal_code":"44130","review_count":3,"stars":3.5,"state":"OH"}
{"address":"9410 W Lake Mead Blvd","attributes":{},"business_id":"45arahaS6jTtYBw_STLDXg","categories":["Financial Services","Banks & Credit Unions"],"city":"Las Vegas","hours":{"Friday":"9:00-18:00","Monday":"9:00-17:00","Saturday":"10:00-14:00","Thursday":"9:00-17:00","Tuesday":"9:00-17:00","Wednesday":"9:00-17:00"},"is_open":1,"latitude":36.206763,"longitude":-115.3007233,"name":"Wells Fargo Bank","neighborhood":"Summerlin","postal_code":"89134","review_count":4,"stars":2.5,"state":"NV"}
{"address":"1227 Silver Ln","attributes":{"BusinessAcceptsCreditCards":true,"BusinessParking":{"garage":false,"lot":true,"street":false,"valet":false,"validated":false},"ByAppointmentOnly":true,"HairSpecializesIn":{"africanamerican":false,"asian":false,"coloring":true,"curly":true,"extensions":true,"kids":false,"perms":true,"straightperms":true},"WheelchairAccessible":true},"business_id":"L2fkc0j8rkEXc1bMO8-uGQ","categories":["Skin Care","Hair Salons","Beauty & Spas","Hair Removal","Waxing","Nail Salons","Massage"],"city":"Mc Kees Rocks","hours":{"Friday":"10:00-17:00","Saturday":"9:15-16:00","Thursday":"10:00-21:00","Tuesday":"10:00-21:00","Wednesday":"10:00-21:00"},"is_open":1,"latitude":40.4696929,"longitude":-80.1365374,"name":"Bella Christine Salon and Spa","neighborhood":"","postal_code":"15136","review_count":3,"stars":4.5,"state":"PA"}
{"address":"5865 W Ray Rd","attributes":{"Ambience":{"casual":true,"classy":false,"divey":false,"hipster":false,"intimate":false,"romantic":false,"touristy":false,"trendy":false,"upscale":false},"BusinessAcceptsCreditCards":true,"BusinessParking":{"garage":false,"lot":false,"street":false,"valet":false,"validated":false},"Caters":true,"GoodForKids":true,"GoodForMeal":{"breakfast":false,"brunch":false,"dessert":false,"dinner":true,"latenight":false,"lunch":true},"HasTV":true,"NoiseLevel":"quiet","OutdoorSeating":false,"RestaurantsAttire":"casual","RestaurantsDelivery":false,"RestaurantsGoodForGroups":true,"RestaurantsPriceRange2":1,"RestaurantsReservations":true,"RestaurantsTableService":true,"RestaurantsTakeOut":true},"business_id":"FLTbKRmBytP1AbjWSPEeyw","categories":["Restaurants","Chinese"],"city":"Chandler","hours":{"Friday":"11:00-22:00","Monday":"11:00-21:00","Saturday":"11:00-22:00","Sunday":"11:00-21:00","Thursday":"11:00-21:00","Tuesday":"11:00-21:00","Wednesday":"11:00-21:00"},"is_open":0,"latitude":33.3187306943,"longitude":-111.943387985,"name":"Szechuan Cuisine","neighborhood":"","postal_code":"85226","review_count":16,"stars":4.0,"state":"AZ"}
{"address":"825 N 54th St","attributes":{"Alcohol":"full_bar","Ambience":{"casual":true,"classy":false,"divey":false,"hipster":false,"intimate":false,"romantic":false,"touristy":false,"trendy":false,"upscale":false},"BestNights":{"friday":true,"monday":false,"saturday":true,"sunday":false,"thursday":false,"tuesday":false,"wednesday":true},"BikeParking":true,"BusinessAcceptsCreditCards":true,"BusinessParking":{"garage":false,"lot":true,"street":false,"valet":false,"validated":false},"CoatCheck":false,"GoodForDancing":true,"HappyHour":true,"HasTV":true,"Music":{"background_music":false,"dj":false,"jukebox":false,"karaoke":false,"live":true,"no_music":false,"video":false},"NoiseLevel":"average","OutdoorSeating":true,"RestaurantsGoodForGroups":true,"RestaurantsPriceRange2":2,"Smoking":"outdoor"},"business_id":"1AxEmgv8Dsr3iU9Aa40jPw","categories":["Nightlife","Restaurants","Bars"],"city":"Chandler","hours":{"Friday":"11:00-2:00","Monday":"11:00-0:00","Saturday":"11:00-2:00","Sunday":"11:00-0:00","Thursday":"11:00-0:00","Tuesday":"11:00-0:00","Wednesday":"11:00-0:00"},"is_open":0,"latitude":33.3162778,"longitude":-111.9680183,"name":"Nabers Music, Bar & Eats","neighborhood":"","postal_code":"85226","review_count":75,"stars":4.0,"state":"AZ"}
{"address":"2 Fountainbridge Square","attributes":{"Alcohol":"full_bar","BusinessAcceptsCreditCards":true,"BusinessParking":{"garage":false,"lot":false,"street":false,"valet":false},"CoatCheck":false,"HappyHour":false,"OutdoorSeating":true,"RestaurantsPriceRange2":2,"WheelchairAccessible":true},"business_id":"LLNmo66wO1xoi-yma1HybA","categories":["Bars","Pubs","Nightlife","Food"],"city":"Edinburgh","hours":{},"is_open":0,"latitude":55.9432066,"longitude":-3.2078002,"name":"Hyde Out","neighborhood":"West End","postal_code":"EH3 9QB","review_count":6,"stars":3.0,"state":"EDH"}
{"address":"1325 Finch Ave W","attributes":{"Alcohol":"beer_and_wine","Ambience":{"casual":true,"classy":false,"hipster":false,"intimate":false,"romantic":false,"touristy":false,"trendy":false,"upscale":false},"BikeParking":false,"BusinessAcceptsCreditCards":true,"BusinessParking":{"garage":false,"lot":true,"street":false,"valet":false,"validated":false},"Caters":false,"GoodForKids":true,"GoodForMeal":{"breakfast":false,"brunch":false,"dessert":false,"dinner":true,"latenight":false,"lunch":false},"HasTV":false,"NoiseLevel":"very_loud","OutdoorSeating":false,"RestaurantsAttire":"casual","RestaurantsDelivery":true,"RestaurantsGoodForGroups":true,"RestaurantsPriceRange2":2,"RestaurantsReservations":true,"RestaurantsTableService":true,"RestaurantsTakeOut":true,"WiFi":"no"},"business_id":"Wf5C8Amv_SlhoYE3_W66WQ","categories":["Asian Fusion","Restaurants","Sushi Bars"],"city":"Toronto","hours":{},"is_open":0,"latitude":43.7635097,"longitude":-79.4907499,"name":"Oishi Sushi","neighborhood":"","postal_code":"M3J 2G5","review_count":27,"stars":2.0,"state":"ON"}
{"address":"106 Rue McGill","attributes":{"Alcohol":"full_bar","Ambience":{"casual":false,"classy":false,"hipster":false,"intimate":false,"romantic":false,"touristy":false,"trendy":true,"upscale":false},"BikeParking":true,"BusinessAcceptsCreditCards":true,"BusinessParking":{"garage":false,"lot":false,"street":true,"valet":false,"validated":false},"Caters":false,"GoodForKids":true,"GoodForMeal":{"breakfast":true,"brunch":true,"dessert":false,"dinner":false,"latenight":false,"lunch":false},"HasTV":false,"NoiseLevel":"average","OutdoorSeating":false,"RestaurantsAttire":"casual","RestaurantsDelivery":false,"RestaurantsGoodForGroups":true,"RestaurantsPriceRange2":2,"RestaurantsReservations":false,"RestaurantsTableService":true,"RestaurantsTakeOut":true,"WheelchairAccessible":false,"WiFi":"free"},"business_id":"58APdML-PG_OD4El2ePTvw","categories":["Restaurants","Specialty Food","French","Breakfast & Brunch","Food","Delicatessen"],"city":"Montréal","hours":{"Friday":"7:00-19:30","Monday":"7:00-19:30","Saturday":"9:00-16:00","Sunday":"9:00-16:00","Thursday":"7:00-19:30","Tuesday":"7:00-19:30","Wednesday":"7:00-19:30"},"is_open":1,"latitude":45.4994089298,"longitude":-73.5552000962,"name":"Le Cartet","neighborhood":"Ville-Marie","postal_code":"H2Y 2E5","review_count":344,"stars":4.0,"state":"QC"}
{"address":"1675 Lake Shore Boulevard E","attributes":{"Alcohol":"full_bar","Ambience":{"casual":true,"classy":false,"hipster":false,"intimate":false,"romantic":false,"touristy":false,"trendy":false,"upscale":false},"BikeParking":true,"BusinessAcceptsCreditCards":true,"DogsAllowed":true,"GoodForDancing":false,"HappyHour":false,"HasTV":true,"NoiseLevel":"average","OutdoorSeating":true,"RestaurantsGoodForGroups":true,"RestaurantsPriceRange2":2,"RestaurantsReservations":true},"business_id":"Z1r6b30Tg0n0ME4-Zj2wQQ","categories":["American (Traditional)","Restaurants","Bars","Pubs","Beer","Wine & Spirits","Food","Nightlife"],"city":"Toronto","hours":{"Friday":"8:00-16:00","Monday":"8:00-16:00","Saturday":"8:00-16:00","Sunday":"8:00-16:00","Thursday":"8:00-16:00","Tuesday":"8:00-16:00","Wednesday":"8:00-16:00"},"is_open":1,"latitude":43.6630096,"longitude":-79.3108978,"name":"Boardwalk Place","neighborhood":"","postal_code":"M4W 3L6","review_count":13,"stars":3.0,"state":"ON"}
{"address":"1805 S Neil St","attributes":{"GoodForMeal":{"breakfast":false,"brunch":false,"dessert":false,"dinner":false,"latenight":false,"lunch":false},"NoiseLevel":"quiet","RestaurantsGoodForGroups":true},"business_id":"-2q4dnUw0gGJniGW2aPamQ","categories":["Restaurants","Mexican"],"city":"Champaign","hours":{},"is_open":0,"latitude":40.0940675,"longitude":-88.2457853,"name":"Fiesta Ranchera","neighborhood":"","postal_code":"61820","review_count":4,"stars":2.0,"state":"IL"}
{"address":"401 E Springfield Ave","attributes":{"BusinessAcceptsCreditCards":false,"ByAppointmentOnly":false},"business_id":"6WMSw48PHoHboOG33R8OJw","categories":["Property Management","Real Estate","Apartments","Home Services"],"city":"Champaign","hours":{},"is_open":1,"latitude":40.112407,"longitude":-88.233285,"name":"Professional Property Management","neighborhood":"","postal_code":"61820","review_count":10,"stars":1.5,"state":"IL"}
{"address":"2400 E Lake Mead Blvd","attributes":{"Alcohol":"none","Ambience":{"casual":false,"classy":false,"divey":false,"hipster":false,"intimate":false,"romantic":false,"touristy":false,"trendy":false,"upscale":false},"BikeParking":false,"BusinessAcceptsCreditCards":true,"BusinessParking":{"garage":false,"lot":false,"street":false,"valet":false,"validated":false},"Caters":true,"DriveThru":true,"GoodForKids":true,"GoodForMeal":{"breakfast":false,"brunch":false,"dessert":false,"dinner":false,"latenight":false,"lunch":false},"HasTV":false,"NoiseLevel":"average","OutdoorSeating":false,"RestaurantsAttire":"casual","RestaurantsDelivery":false,"RestaurantsGoodForGroups":true,"RestaurantsPriceRange2":1,"RestaurantsReservations":false,"RestaurantsTableService":true,"RestaurantsTakeOut":true,"WiFi":"no"},"business_id":"LDMCrFlGIFUN6L-FEFgzWg","categories":["Restaurants","American (Traditional)","Mexican","Fast Food"],"city":"Las Vegas","hours":{"Friday":"9:00-23:00","Monday":"9:00-23:00","Saturday":"9:00-23:00","Sunday":"9:00-23:00","Thursday":"9:00-23:00","Tuesday":"9:00-23:00","Wednesday":"9:00-23:00"},"is_open":1,"latitude":36.1962026,"longitude":-115.1167987,"name":"El Pollo Loco","neighborhood":"","postal_code":"89030","review_count":12,"stars":3.0,"state":"NV"}
{"address":"19 Elm Row","attributes":{"Alcohol":"beer_and_wine","Ambience":{"casual":true,"classy":false,"hipster":false,"intimate":false,"romantic":false,"touristy":false,"trendy":false,"upscale":false},"BikeParking":true,"BusinessParking":{"garage":false,"lot":false,"street":true,"valet":false},"GoodForKids":true,"GoodForMeal":{"breakfast":true,"brunch":true,"dessert":false,"dinner":false,"latenight":false,"lunch":true},"HasTV":false,"NoiseLevel":"quiet","OutdoorSeating":false,"RestaurantsAttire":"casual","RestaurantsDelivery":false,"RestaurantsGoodForGroups":true,"RestaurantsPriceRange2":2,"RestaurantsReservations":true,"RestaurantsTableService":true,"RestaurantsTakeOut":true,"WheelchairAccessible":true,"WiFi":"free"},"business_id":"cBHMUESPj4SNs65Xv6xWRA","categories":["Food","Shopping","Grocery","Delis","Gift Shops","Coffee & Tea","Flowers & Gifts","Restaurants"],"city":"Edinburgh","hours":{"Friday":"9:30-18:00","Monday":"9:30-18:00","Saturday":"9:00-18:00","Sunday":"10:00-17:30","Thursday":"9:30-19:00","Tuesday":"9:30-18:00","Wednesday":"9:30-18:00"},"is_open":1,"latitude":55.9502678,"longitude":-3.2071145,"name":"Valvona & Crolla","neighborhood":"New Town","postal_code":"EH2 2YZ","review_count":60,"stars":4.0,"state":"EDH"}
{"address":"620 E Roosevelt St","attributes":{"BusinessAcceptsCreditCards":true,"BusinessParking":{"garage":false,"lot":true,"street":false,"valet":false,"validated":false},"RestaurantsPriceRange2":1,"WheelchairAccessible":true},"business_id":"uG4YxC4OA0bg6S_Yko2pMg","categories":["Food","Donuts"],"city":"Phoenix","hours":{},"is_open":0,"latitude":33.458928,"longitude":-112.0655978,"name":"Krispy Kreme Doughnuts","neighborhood":"","postal_code":"85004","review_count":10,"stars":1.5,"state":"AZ"}
{"address":"1950 N Gilbert Rd","attributes":{"BusinessAcceptsCreditCards":true},"business_id":"EvX3LA7Wc1tv1S4qrendxQ","categories":["Oil Change Stations","Transmission Repair","Tires","Auto Repair","Automotive"],"city":"Mesa","hours":{"Friday":"8:00-17:00","Monday":"8:00-17:30","Saturday":"8:00-15:30","Thursday":"8:00-17:30","Tuesday":"8:00-17:30","Wednesday":"8:00-17:30"},"is_open":1,"latitude":33.4509552,"longitude":-111.7882334,"name":"Gunnell's Tire & Auto","neighborhood":"","postal_code":"85203","review_count":24,"stars":4.5,"state":"AZ"}
{"address":"250 Adelaide Street W","attributes":{"Alcohol":"full_bar","Ambience":{"casual":false,"classy":false,"hipster":true,"intimate":false,"romantic":false,"touristy":false,"trendy":false,"upscale":false},"BikeParking":true,"BusinessAcceptsCreditCards":true,"CoatCheck":true,"GoodForDancing":true,"GoodForKids":false,"HappyHour":false,"HasTV":false,"Music":{"background_music":false,"dj":false,"jukebox":false,"karaoke":false,"live":true,"no_music":false,"video":false},"NoiseLevel":"very_loud","OutdoorSeating":true,"RestaurantsGoodForGroups":true,"RestaurantsPriceRange2":2,"Smoking":"outdoor","WheelchairAccessible":false},"business_id":"g2FSpf4OTWcQauAOWjoL-g","categories":["Nightlife","Music Venues","DJs","Arts & Entertainment","Performing Arts","Event Planning & Services","Venues & Event Spaces"],"city":"Toronto","hours":{"Friday":"10:00-1:00","Monday":"10:00-1:00","Saturday":"10:00-1:00","Sunday":"10:00-1:00","Thursday":"10:00-1:00","Tuesday":"10:00-1:00","Wednesday":"10:00-1:00"},"is_open":1,"latitude":43.6481715,"longitude":-79.3890774,"name":"Adelaide Hall","neighborhood":"Entertainment District","postal_code":"M5H 1X6","review_count":10,"stars":3.5,"state":"ON"}
{"address":"145 Roncesvalles Avenue","attributes":{"Alcohol":"full_bar","Ambience":{"casual":true,"classy":false,"hipster":false,"intimate":false,"romantic":false,"touristy":false,"trendy":false,"upscale":false},"BikeParking":true,"BusinessAcceptsCreditCards":true,"BusinessParking":{"garage":false,"lot":false,"street":true,"valet":false,"validated":false},"CoatCheck":false,"GoodForDancing":false,"HasTV":true,"Music":{"background_music":true,"dj":false,"jukebox":false,"karaoke":false,"live":false,"no_music":false,"video":false},"NoiseLevel":"average","OutdoorSeating":true,"RestaurantsGoodForGroups":true,"RestaurantsPriceRange2":1,"RestaurantsReservations":true,"WiFi":"free"},"business_id":"v86J4q6ATA2ANm1fc7yCNg","categories":["Nightlife","Lounges","Beer","Wine & Spirits","Bars","Food"],"city":"Toronto","hours":{"Friday":"11:00-2:00","Monday":"11:00-1:00","Saturday":"10:00-2:00","Sunday":"10:00-1:00","Thursday":"11:00-1:00","Tuesday":"11:00-1:00","Wednesday":"11:00-1:00"},"is_open":1,"latitude":43.6435365586,"longitude":-79.4479535911,"name":"Sangria Lounge","neighborhood":"High Park","postal_code":"M6R 2K9","review_count":23,"stars":3.5,"state":"ON"}
{"address":"4190 S Rainbow Blvd","attributes":{"Alcohol":"none","RestaurantsAttire":"casual","RestaurantsPriceRange2":1,"RestaurantsReservations":false},"business_id":"QTH_XGh4rWYdd0fTW-tUDw","categories":["Mexican","Restaurants"],"city":"Las Vegas","hours":{},"is_open":0,"latitude":36.1125192,"longitude":-115.2426053,"name":"Baja Fresh Mexican Grill","neighborhood":"Spring Valley","postal_code":"89103","review_count":7,"stars":3.5,"state":"NV"}
{"address":"11240 N 19th Ave, Ste 23","attributes":{"BusinessAcceptsCreditCards":true,"ByAppointmentOnly":false},"business_id":"ghDBE0fCjRfj7_fLoXnICw","categories":["Home Services","Movers"],"city":"Phoenix","hours":{"Friday":"0:00-0:00","Monday":"0:00-0:00","Saturday":"0:00-0:00","Sunday":"0:00-0:00","Thursday":"0:00-0:00","Tuesday":"0:00-0:00","Wednesday":"0:00-0:00"},"is_open":1,"latitude":33.5890134,"longitude":-112.100158,"name":"Fast Movers","neighborhood":"","postal_code":"85029","review_count":11,"stars":3.5,"state":"AZ"}
{"address":"2815 S Alma School Rd","attributes":{},"business_id":"gqv6zoGHSeTsNKynhjI-Ng","categories":["Departments of Motor Vehicles","Public Services & Government"],"city":"Mesa","hours":{},"is_open":1,"latitude":33.3638634,"longitude":-111.8581176,"name":"Desert Title Service","neighborhood":"","postal_code":"85210","review_count":16,"stars":3.5,"state":"AZ"}
{"address":"50 S Country Club Dr","attributes":{},"business_id":"ynN2PeYIpufc_eSjE2Rtbg","categories":["Hotels & Travel","Car Rental"],"city":"Mesa","hours":{},"is_open":0,"latitude":33.4134714,"longitude":-111.8403779,"name":"Enterprise Rent-A-Car","neighborhood":"","postal_code":"85210","review_count":3,"stars":4.0,"state":"AZ"}
{"address":"1130 W Grove Ave, Ste 112","attributes":{"BikeParking":true,"BusinessAcceptsCreditCards":true,"BusinessParking":{"garage":false,"lot":true,"street":false,"valet":false,"validated":false},"ByAppointmentOnly":false,"RestaurantsPriceRange2":2,"WheelchairAccessible":true},"business_id":"g-HSA1m2vFPjKHYnqiL6qA","categories":["Piercing","Beauty & Spas","Tattoo"],"city":"Mesa","hours":{"Friday":"11:00-20:00","Saturday":"11:00-20:00","Thursday":"11:00-20:00","Tuesday":"11:00-20:00","Wednesday":"11:00-20:00"},"is_open":1,"latitude":33.3908326,"longitude":-111.8556958,"name":"The Tattoo Lounge","neighborhood":"","postal_code":"85210","review_count":6,"stars":5.0,"state":"AZ"}
{"address":"440 N 32nd St","attributes":{"Alcohol":"full_bar","Ambience":{"casual":true,"classy":false,"divey":false,"hipster":false,"intimate":false,"romantic":false,"touristy":false,"trendy":false,"upscale":false},"BestNights":{"friday":true,"monday":false,"saturday":true,"sunday":false,"thursday":true,"tuesday":false,"wednesday":false},"BikeParking":true,"BusinessAcceptsCreditCards":true,"BusinessParking":{"garage":false,"lot":true,"street":false,"valet":false,"validated":false},"CoatCheck":false,"GoodForDancing":false,"GoodForKids":false,"HappyHour":false,"HasTV":false,"Music":{"background_music":false,"dj":false,"jukebox":false,"karaoke":false,"live":true,"no_music":false,"video":false},"NoiseLevel":"loud","OutdoorSeating":false,"RestaurantsGoodForGroups":true,"RestaurantsPriceRange2":2,"Smoking":"outdoor","WheelchairAccessible":true},"business_id":"WKPnq7NYw4IV5IG2smpd1Q","categories":["Performing Arts","Arts & Entertainment","Music Venues","Nightlife"],"city":"Phoenix","hours":{"Friday":"10:00-18:00","Monday":"10:00-18:00","Thursday":"10:00-18:00","Tuesday":"10:00-18:00","Wednesday":"10:00-18:00"},"is_open":1,"latitude":33.4544237,"longitude":-112.0147668,"name":"Celebrity Theatre","neighborhood":"","postal_code":"85008","review_count":123,"stars":3.0,"state":"AZ"}
{"address":"2641 N 44th St, Ste 100","attributes":{"Alcohol":"none","Ambience":{"casual":true,"classy":false,"divey":false,"hipster":false,"intimate":false,"romantic":false,"touristy":false,"trendy":false,"upscale":false},"BikeParking":true,"BusinessAcceptsCreditCards":true,"BusinessParking":{"garage":false,"lot":true,"street":false,"valet":false,"validated":false},"Caters":false,"DriveThru":false,"GoodForKids":true,"GoodForMeal":{"breakfast":false,"brunch":false,"dessert":false,"dinner":true,"latenight":false,"lunch":true},"HasTV":false,"NoiseLevel":"average","OutdoorSeating":true,"RestaurantsAttire":"casual","RestaurantsDelivery":false,"RestaurantsGoodForGroups":true,"RestaurantsPriceRange2":2,"RestaurantsReservations":false,"RestaurantsTableService":false,"RestaurantsTakeOut":true,"WiFi":"no"},"business_id":"01xXe2m_z048W5gcBFpoJA","categories":["American (New)","Burgers","Fast Food","Restaurants"],"city":"Phoenix","hours":{"Friday":"10:00-22:00","Monday":"10:00-22:00","Saturday":"10:00-22:00","Sunday":"10:00-22:00","Thursday":"10:00-22:00","Tuesday":"10:00-22:00","Wednesday":"10:00-22:00"},"is_open":1,"latitude":33.4780429336,"longitude":-111.986370289,"name":"Five Guys","neighborhood":"","postal_code":"85008","review_count":63,"stars":3.5,"state":"AZ"}
{"address":"1504 Rue Sherbrooke Ouest","attributes":{"Alcohol":"full_bar","Ambience":{"casual":false,"classy":false,"hipster":false,"intimate":false,"romantic":true,"touristy":false,"trendy":false,"upscale":true},"BikeParking":true,"BusinessAcceptsCreditCards":true,"BusinessParking":{"garage":false,"lot":false,"street":true,"valet":true,"validated":false},"Caters":true,"DogsAllowed":true,"GoodForKids":false,"GoodForMeal":{"breakfast":false,"brunch":false,"dessert":false,"dinner":true,"latenight":false,"lunch":false},"HasTV":false,"NoiseLevel":"average","OutdoorSeating":true,"RestaurantsAttire":"dressy","RestaurantsDelivery":false,"RestaurantsGoodForGroups":true,"RestaurantsPriceRange2":3,"RestaurantsReservations":true,"RestaurantsTableService":true,"RestaurantsTakeOut":true,"WheelchairAccessible":true,"WiFi":"free"},"business_id":"dEmNOTm8Rmm9JYZdGX_Lhw","categories":["Italian","Restaurants"],"city":"Montreal","hours":{"Friday":"12:00-15:00","Monday":"18:00-23:00","Saturday":"18:00-23:00","Sunday":"18:00-23:00","Thursday":"12:00-15:00","Tuesday":"12:00-15:00","Wednesday":"12:00-15:00"},"is_open":1,"latitude":45.497017,"longitude":-73.5810084,"name":"Ristorante Beatrice","neighborhood":"Ville-Marie","postal_code":"H3G 1L3","review_count":35,"stars":4.0,"state":"QC"}
{"address":"2435 E Southern Ave","attributes":{"ByAppointmentOnly":false},"business_id":"3J75SkvgoLikY5Z4znmHjw","categories":["Health & Medical","Midwives"],"city":"Tempe","hours":{},"is_open":1,"latitude":33.3926244,"longitude":-111.886572,"name":"Farra Swan Nd","neighborhood":"","postal_code":"85282","review_count":4,"stars":4.0,"state":"AZ"}
{"address":"7872 Idlewild Rd","attributes":{"BikeParking":true,"BusinessParking":{"garage":false,"lot":false,"street":false,"valet":false,"validated":false},"ByAppointmentOnly":false,"RestaurantsPriceRange2":2},"business_id":"efftalgKFDTs9itqHbVttg","categories":["Beauty & Spas","Nail Salons"],"city":"Indian Trail","hours":{},"is_open":1,"latitude":35.1062402,"longitude":-80.6337422,"name":"Profile Nail Spa","neighborhood":"","postal_code":"28079","review_count":3,"stars":4.0,"state":"NC"}
{"address":"Feuerbacher Weg 46, Killesberg","attributes":{},"business_id":"VoHZ4U8gvY33BxXtcsy5Rw","categories":["Arts & Entertainment","Museums"],"city":"Stuttgart","hours":{},"is_open":1,"latitude":48.7981911,"longitude":9.1635217,"name":"Theodor-Heuss-Haus","neighborhood":"","postal_code":"70192","review_count":3,"stars":3.5,"state":"BW"}
{"address":"3827 E Sunset Rd","attributes":{"BusinessAcceptsCreditCards":true},"business_id":"fIWozPW-2wRknzsDqdgyjg","categories":["Local Services","Shipping Centers"],"city":"Las Vegas","hours":{"Friday":"9:00-18:00","Monday":"9:00-18:00","Saturday":"10:00-16:00","Thursday":"9:00-18:00","Tuesday":"9:00-18:00","Wednesday":"9:00-18:00"},"is_open":0,"latitude":36.0706724,"longitude":-115.0912381,"name":"Box Brothers","neighborhood":"Southeast","postal_code":"89120","review_count":12,"stars":5.0,"state":"NV"}
{"address":"","attributes":{"BusinessAcceptsCreditCards":true,"ByAppointmentOnly":true},"business_id":"UlDvngOADDhshzMKvrMsQw","categories":["Glass & Mirrors","Window Washing","Home Services"],"city":"Mesa","hours":{"Friday":"7:00-19:00","Monday":"7:00-19:00","Saturday":"7:00-19:00","Thursday":"7:00-19:00","Tuesday":"7:00-19:00","Wednesday":"7:00-19:00"},"is_open":1,"latitude":33.4151843,"longitude":-111.8314724,"name":"Sun Devil Window Cleaning","neighborhood":"","postal_code":"85213","review_count":7,"stars":5.0,"state":"AZ"}
{"address":"2004 Winnebago St","attributes":{"BikeParking":true,"BusinessAcceptsCreditCards":false,"BusinessParking":{"garage":false,"lot":true,"street":false,"valet":false,"validated":false},"RestaurantsPriceRange2":1,"WiFi":"free"},"business_id":"VrYc4SGCGXFxlNZNrwS39w","categories":["Laundry Services","Laundromat","Dry Cleaning & Laundry","Local Services"],"city":"Madison","hours":{"Friday":"6:00-22:30","Monday":"6:00-22:30","Saturday":"6:00-22:30","Sunday":"6:00-22:30","Thursday":"6:00-22:30","Tuesday":"6:00-22:30","Wednesday":"6:00-22:30"},"is_open":1,"latitude":43.0929219,"longitude":-89.3550314,"name":"Schenk's Corners Coin-Op Laundromat","neighborhood":"Williamson - Marquette","postal_code":"53704","review_count":5,"stars":4.5,"state":"WI"}
{"address":"6014 S Ash Ave","attributes":{},"business_id":"SnlaPHqW3ksKfpH12pDGeg","categories":["Automotive","Auto Parts & Supplies"],"city":"Tempe","hours":{},"is_open":0,"latitude":33.3684114,"longitude":-111.9343636,"name":"Dash Designs","neighborhood":"","postal_code":"85283","review_count":8,"stars":3.5,"state":"AZ"}
{"address":"1 S State St","attributes":{"Ambience":{"casual":false,"classy":false,"divey":false,"hipster":false,"intimate":false,"romantic":false,"touristy":false,"trendy":false,"upscale":false},"BikeParking":true,"BusinessAcceptsCreditCards":true,"GoodForKids":true,"GoodForMeal":{"breakfast":false,"brunch":true,"dessert":false,"dinner":false,"latenight":false,"lunch":true},"HasTV":true,"NoiseLevel":"average","OutdoorSeating":true,"RestaurantsAttire":"casual","RestaurantsDelivery":false,"RestaurantsGoodForGroups":false,"RestaurantsPriceRange2":1,"RestaurantsReservations":false,"RestaurantsTakeOut":true,"WiFi":"free"},"business_id":"Bl7Y-ATTzXytQnCceg5k6w","categories":["American (Traditional)","Breakfast & Brunch","Restaurants"],"city":"Painesville","hours":{"Friday":"6:00-16:30","Monday":"6:00-16:30","Saturday":"6:00-16:30","Sunday":"6:00-16:30","Thursday":"6:00-16:30","Tuesday":"6:00-16:30","Wednesday":"6:00-16:30"},"is_open":1,"latitude":41.7260294,"longitude":-81.2409431,"name":"Sidewalk Cafe Painesville","neighborhood":"","postal_code":"44077","review_count":26,"stars":3.0,"state":"OH"}
{"address":"278 Lakeshore Road E","attributes":{"Ambience":{"casual":false,"classy":false,"hipster":false,"intimate":false,"romantic":false,"touristy":false,"trendy":false,"upscale":false},"BikeParking":true,"BusinessAcceptsCreditCards":true,"BusinessParking":{"garage":false,"lot":false,"street":false,"valet":false,"validated":false},"GoodForKids":true,"GoodForMeal":{"breakfast":false,"brunch":false,"dessert":false,"dinner":false,"latenight":false,"lunch":true},"HasTV":true,"NoiseLevel":"quiet","OutdoorSeating":false,"RestaurantsAttire":"casual","RestaurantsDelivery":true,"RestaurantsGoodForGroups":true,"RestaurantsPriceRange2":1,"RestaurantsReservations":false,"RestaurantsTableService":false,"RestaurantsTakeOut":true},"business_id":"BvCHyg0GtxA6XKmRC0cQsg","categories":["Pizza","Restaurants"],"city":"Mississauga","hours":{"Friday":"11:00-22:00","Monday":"11:00-22:00","Saturday":"11:00-22:00","Sunday":"11:00-22:00","Thursday":"11:00-22:00","Tuesday":"11:00-22:00","Wednesday":"11:00-22:00"},"is_open":1,"latitude":43.5605906,"longitude":-79.5763048,"name":"The Great Canadian Pizza Company","neighborhood":"Port Credit","postal_code":"L5G 1H1","review_count":18,"stars":4.0,"state":"ON"}
{"address":"1304 Evergreen Ave","attributes":{},"business_id":"BwNZaPoqjHYK4RMqAxSeCw","categories":["Bars","Nightlife"],"city":"Pittsburgh","hours":{},"is_open":1,"latitude":40.495202,"longitude":-79.975783,"name":"Good Time Bar","neighborhood":"","postal_code":"15209","review_count":3,"stars":3.5,"state":"PA"}
{"address":"2009 Kenyon Rd","attributes":{"Ambience":{"casual":false,"classy":false,"divey":false,"hipster":false,"intimate":false,"romantic":false,"touristy":false,"trendy":false,"upscale":false},"BikeParking":true,"BusinessAcceptsCreditCards":true,"DriveThru":true,"GoodForKids":true,"GoodForMeal":{"breakfast":true,"brunch":false,"dessert":false,"dinner":false,"latenight":false,"lunch":true},"HasTV":false,"NoiseLevel":"average","OutdoorSeating":false,"RestaurantsAttire":"casual","RestaurantsDelivery":false,"RestaurantsGoodForGroups":true,"RestaurantsPriceRange2":1,"RestaurantsReservations":false,"RestaurantsTakeOut":true,"WiFi":"no"},"business_id":"fl2TPNWrchkCbNEg0utjvw","categories":["Diners","Breakfast & Brunch","Burgers","American (New)","Ice Cream & Frozen Yogurt","Fast Food","Restaurants","Food"],"city":"Urbana","hours":{"Friday":"0:00-0:00","Monday":"0:00-0:00","Saturday":"0:00-0:00","Sunday":"0:00-0:00","Thursday":"0:00-0:00","Tuesday":"0:00-0:00","Wednesday":"0:00-0:00"},"is_open":1,"latitude":40.1331967,"longitude":-88.198577,"name":"Steak 'n Shake","neighborhood":"","postal_code":"61802","review_count":14,"stars":2.0,"state":"IL"}
{"address":"4910 E Ray Rd","attributes":{"BikeParking":true,"BusinessAcceptsCreditCards":true,"BusinessParking":{"garage":false,"lot":true,"street":false,"valet":false,"validated":false},"RestaurantsDelivery":true,"RestaurantsPriceRange2":2,"RestaurantsTakeOut":true},"business_id":"MKT77UstJ5PAWyLNTuWujQ","categories":["Bakeries","Desserts","Cupcakes","Food"],"city":"Phoenix","hours":{"Friday":"9:00-19:00","Monday":"9:00-19:00","Saturday":"9:00-19:00","Sunday":"11:00-17:00","Thursday":"9:00-19:00","Tuesday":"9:00-19:00","Wednesday":"9:00-19:00"},"is_open":0,"latitude":33.3204536,"longitude":-111.9773422,"name":"Gigi's Cupcakes of Phoenix","neighborhood":"","postal_code":"85044","review_count":81,"stars":3.0,"state":"AZ"}
{"address":"209 21st St","attributes":{"BikeParking":true,"BusinessAcceptsCreditCards":true,"BusinessParking":{"garage":false,"lot":false,"street":true,"valet":false,"validated":false},"Caters":false,"RestaurantsPriceRange2":1,"RestaurantsTakeOut":true,"WheelchairAccessible":true},"business_id":"CD_ExwWCwGjxWYagfDBnbw","categories":["Candy Stores","Popcorn Shops","Desserts","Food","Specialty Food"],"city":"Pittsburgh","hours":{"Friday":"10:00-17:00","Monday":"10:00-17:00","Saturday":"9:00-17:00","Sunday":"10:00-16:30","Thursday":"10:00-17:00","Tuesday":"10:00-17:00","Wednesday":"10:00-17:00"},"is_open":1,"latitude":40.4515676,"longitude":-79.9826937,"name":"The Pittsburgh Popcorn Company","neighborhood":"Strip District","postal_code":"15222","review_count":110,"stars":4.5,"state":"PA"}
{"address":"8879 Brecksville Rd","attributes":{"ByAppointmentOnly":true},"business_id":"tzHbcCa6wMyNgQD0zqaQJA","categories":["Optometrists","Eyewear & Opticians","Health & Medical","Shopping","Medical Supplies"],"city":"Brecksville","hours":{"Friday":"9:00-16:00","Monday":"9:00-17:00","Saturday":"9:00-13:00","Sunday":"0:00-0:00","Thursday":"9:00-16:00","Tuesday":"9:00-19:00","Wednesday":"9:00-14:00"},"is_open":1,"latitude":41.320623,"longitude":-81.625754,"name":"Stagehouse Vision Center","neighborhood":"","postal_code":"44141","review_count":3,"stars":5.0,"state":"OH"}
{"address":"Gartloch Road","attributes":{"Alcohol":"none","BusinessAcceptsCreditCards":false,"GoodForKids":true,"RestaurantsDelivery":false,"RestaurantsReservations":false,"RestaurantsTableService":false,"RestaurantsTakeOut":true},"business_id":"b5VIe-VnkOOwiwkjGw071A","categories":["Chinese","Restaurants"],"city":"Glasgow","hours":{},"is_open":1,"latitude":55.9344419781,"longitude":-3.1050567619,"name":"McChans Oriental Express","neighborhood":"","postal_code":"G33 5AL","review_count":3,"stars":4.0,"state":"EDH"}
{"address":"1201 E Jefferson St","attributes":{},"business_id":"vfn-BKoMtOG6bf-QoU5b6Q","categories":["Newspapers & Magazines","Books","Mags","Music & Video","Print Media","Mass Media","Shopping"],"city":"Phoenix","hours":{"Friday":"9:00-17:00","Monday":"9:00-17:00","Thursday":"9:00-17:00","Tuesday":"9:00-17:00","Wednesday":"9:00-17:00"},"is_open":1,"latitude":33.4468429,"longitude":-112.0558695,"name":"Phoenix NewTimes","neighborhood":"","postal_code":"85034","review_count":15,"stars":2.0,"state":"AZ"}
{"address":"3585 S Decatur Blvd, Ste C","attributes":{"BikeParking":true,"BusinessAcceptsCreditCards":true,"BusinessParking":{"garage":false,"lot":false,"street":false,"valet":false,"validated":false},"ByAppointmentOnly":false,"GoodForKids":true,"RestaurantsPriceRange2":2,"WheelchairAccessible":true},"business_id":"9TfpnjAKFtP1u3C3eIFQ5Q","categories":["Arts & Entertainment","Shopping","Arts & Crafts","Art Galleries","Framing"],"city":"Las Vegas","hours":{"Friday":"9:00-17:30","Monday":"9:00-17:30","Saturday":"10:00-16:00","Sunday":"0:00-0:00","Thursday":"9:00-17:30","Tuesday":"9:00-17:30","Wednesday":"9:00-17:30"},"is_open":1,"latitude":36.1245825,"longitude":-115.2086713,"name":"Randall's Fine Art & Custom Framing","neighborhood":"Chinatown","postal_code":"89103","review_count":16,"stars":4.5,"state":"NV"}
{"address":"Silberburgstr. 171","attributes":{"BusinessAcceptsCreditCards":true,"BusinessParking":{"garage":false,"lot":false,"street":false,"valet":false,"validated":false},"RestaurantsPriceRange2":3,"WheelchairAccessible":true},"business_id":"IVtp8mznb2vRO0OcwBEQMw","categories":["Shopping","Bridal"],"city":"Stuttgart","hours":{"Friday":"10:00-18:00","Monday":"10:00-18:00","Saturday":"10:00-15:00","Thursday":"10:00-18:00","Tuesday":"10:00-18:00","Wednesday":"10:00-18:00"},"is_open":1,"latitude":48.7714398,"longitude":9.168795,"name":"Brautatelier Tara","neighborhood":"","postal_code":"70178","review_count":3,"stars":4.5,"state":"BW"}
{"address":"6325 E Russell Rd","attributes":{"BikeParking":false,"BusinessAcceptsCreditCards":true,"BusinessParking":{"garage":false,"lot":true,"street":false,"valet":false,"validated":false},"RestaurantsPriceRange2":1,"RestaurantsTakeOut":true},"business_id":"DiA78qPtp6rfRNdomzjBbw","categories":["Chinese","Food","Convenience Stores","Restaurants"],"city":"Las Vegas","hours":{},"is_open":1,"latitude":36.0833844974,"longitude":-115.033994983,"name":"Joshan Filipino Oriental Market","neighborhood":"Southeast","postal_code":"89122","review_count":17,"stars":3.5,"state":"NV"}
{"address":"","attributes":{"BusinessAcceptsCreditCards":true},"business_id":"voF2F6emy4zrDAezPC6bkg","categories":["Photographers","Session Photography","Event Planning & Services","Event Photography"],"city":"Chandler","hours":{"Friday":"0:00-0:00","Monday":"0:00-0:00","Saturday":"0:00-0:00","Sunday":"0:00-0:00","Thursday":"0:00-0:00","Tuesday":"0:00-0:00","Wednesday":"0:00-0:00"},"is_open":1,"latitude":33.3260297,"longitude":-111.8747445,"name":"Colling Photography","neighborhood":"","postal_code":"85224","review_count":3,"stars":5.0,"state":"AZ"}
{"address":"Eberhardstr. 51","attributes":{"BusinessAcceptsCreditCards":true,"BusinessParking":{"garage":false,"lot":false,"street":false,"valet":false,"validated":false},"RestaurantsPriceRange2":3,"WheelchairAccessible":true},"business_id":"SPdAkTJkQ_roC4dF4bvNpw","categories":["Luggage","Accessories","Fashion","Shopping"],"city":"Stuttgart","hours":{"Friday":"11:00-19:00","Monday":"11:00-19:00","Saturday":"11:00-18:00","Thursday":"11:00-19:00","Tuesday":"11:00-19:00","Wednesday":"11:00-19:00"},"is_open":0,"latitude":48.773,"longitude":9.17716,"name":"Tausche","neighborhood":"","postal_code":"70173","review_count":6,"stars":4.5,"state":"BW"}
{"address":"6555 E Southern Ave","attributes":{"BikeParking":true,"BusinessAcceptsCreditCards":true,"BusinessParking":{"garage":false,"lot":false,"street":false,"valet":false,"validated":false},"RestaurantsPriceRange2":3,"WheelchairAccessible":true},"business_id":"25lVJgvthMyvoRz-W6splw","categories":["Mobile Phones","Local Services","Shopping","Mobile Phone Accessories"],"city":"Mesa","hours":{"Friday":"10:00-21:00","Monday":"10:00-21:00","Saturday":"10:00-21:00","Sunday":"11:00-18:00","Thursday":"10:00-21:00","Tuesday":"10:00-21:00","Wednesday":"10:00-21:00"},"is_open":0,"latitude":33.3905976,"longitude":-111.689675,"name":"Ghost Armor SS Springs","neighborhood":"","postal_code":"85206","review_count":3,"stars":2.0,"state":"AZ"}
{"address":"500 Broadway Ave","attributes":{},"business_id":"ldwon-7FnBRRblX8RirnEg","categories":["Financial Services","Insurance"],"city":"Bedford","hours":{},"is_open":1,"latitude":41.395688,"longitude":-81.541456,"name":"Progressive Insurance","neighborhood":"","postal_code":"44146","review_count":3,"stars":3.5,"state":"OH"}
{"address":"7025 N 75th Ave, Ste 103","attributes":{"BikeParking":false,"BusinessAcceptsCreditCards":true,"BusinessParking":{"garage":false,"lot":true,"street":false,"valet":false,"validated":false},"ByAppointmentOnly":false,"RestaurantsPriceRange2":2},"business_id":"IxUKeZlUE-sGTQMKErvrJg","categories":["Beauty & Spas","Nail Salons"],"city":"Glendale","hours":{},"is_open":1,"latitude":33.5390793,"longitude":-112.2197188,"name":"Angel Touch Nails","neighborhood":"","postal_code":"85303","review_count":9,"stars":4.0,"state":"AZ"}
{"address":"7625 E Redfield Rd, Ste 160","attributes":{"BikeParking":false,"BusinessAcceptsCreditCards":true,"GoodForKids":true,"RestaurantsPriceRange2":3},"business_id":"GoVRPbvG9oLfNZ54v4nYbw","categories":["Rafting/Kayaking","Sporting Goods","Hiking","Outdoor Gear","Hotels & Travel","Shopping","Paddleboarding","Tours","Active Life","Rock Climbing"],"city":"Scottsdale","hours":{"Friday":"10:00-17:00","Monday":"10:00-17:00","Thursday":"10:00-17:00","Tuesday":"10:00-17:00","Wednesday":"10:00-17:00"},"is_open":1,"latitude":33.6135253906,"longitude":-111.916511536,"name":"Just Roughin' It Adventure Company","neighborhood":"","postal_code":"85260","review_count":14,"stars":3.5,"state":"AZ"}
{"address":"4926 E McDowell Rd, Ste 102","attributes":{},"business_id":"z9lq1goS0IRqeIIUEZA4Pg","categories":["Education"],"city":"Phoenix","hours":{},"is_open":0,"latitude":33.4660046,"longitude":-111.9751233,"name":"Executive Training Solutions","neighborhood":"","postal_code":"85008","review_count":3,"stars":4.5,"state":"AZ"}
{"address":"1949 W Ray Rd, Ste 235","attributes":{"Ambience":{"casual":false,"classy":false,"divey":false,"hipster":false,"intimate":false,"romantic":false,"touristy":false,"trendy":false,"upscale":false},"OutdoorSeating":true,"RestaurantsAttire":"casual","RestaurantsDelivery":true,"RestaurantsPriceRange2":2,"RestaurantsTakeOut":true},"business_id":"d2fkRF67jiASrXxHfbmJuA","categories":["Restaurants","Chinese"],"city":"Chandler","hours":{},"is_open":1,"latitude":33.3192304,"longitude":-111.8741469,"name":"Jade Palace","neighborhood":"","postal_code":"85224","review_count":3,"stars":2.5,"state":"AZ"}
{"address":"4250 Main St, Ste 100","attributes":{"Ambience":{"casual":false,"classy":false,"divey":false,"hipster":false,"intimate":false,"romantic":false,"touristy":false,"trendy":false,"upscale":false},"BusinessAcceptsCreditCards":true,"BusinessParking":{"garage":false,"lot":false,"street":false,"valet":false,"validated":false},"GoodForKids":true,"GoodForMeal":{"breakfast":false,"brunch":false,"dessert":false,"dinner":false,"latenight":false,"lunch":false},"HasTV":true,"NoiseLevel":"average","OutdoorSeating":true,"RestaurantsAttire":"casual","RestaurantsDelivery":false,"RestaurantsGoodForGroups":true,"RestaurantsPriceRange2":1,"RestaurantsReservations":false,"RestaurantsTableService":false,"RestaurantsTakeOut":true},"business_id":"weXoqWqLgzMOf5Yz-qiujw","categories":["Italian","Restaurants","Pizza"],"city":"Harrisburg","hours":{},"is_open":0,"latitude":35.3264265,"longitude":-80.6467724,"name":"Bellacino's Pizza & Grinders","neighborhood":"","postal_code":"28075","review_count":5,"stars":3.0,"state":"NC"}
{"address":"4323 W Cactus Rd","attributes":{"Alcohol":"full_bar","Ambience":{"casual":true,"classy":false,"divey":false,"hipster":false,"intimate":false,"romantic":false,"touristy":false,"trendy":false,"upscale":false},"BikeParking":true,"BusinessAcceptsCreditCards":true,"BusinessParking":{"garage":false,"lot":true,"street":false,"valet":false,"validated":false},"Caters":true,"GoodForKids":true,"GoodForMeal":{"breakfast":false,"brunch":false,"dessert":false,"dinner":true,"latenight":false,"lunch":true},"HasTV":false,"NoiseLevel":"average","OutdoorSeating":false,"RestaurantsAttire":"casual","RestaurantsCounterService":false,"RestaurantsDelivery":false,"RestaurantsGoodForGroups":true,"RestaurantsPriceRange2":2,"RestaurantsReservations":true,"RestaurantsTableService":true,"RestaurantsTakeOut":true,"WheelchairAccessible":true,"WiFi":"no"},"business_id":"wsyNO9Ac4gqGYTBfNeM1VA","categories":["Mexican","Restaurants"],"city":"Glendale","hours":{"Friday":"11:00-21:00","Monday":"11:00-21:00","Saturday":"11:00-21:00","Sunday":"11:00-20:00","Thursday":"11:00-21:00","Tuesday":"11:00-21:00","Wednesday":"11:00-21:00"},"is_open":1,"latitude":33.5958491,"longitude":-112.1524877,"name":"Don Ruben's Mexican Restaurant","neighborhood":"","postal_code":"85304","review_count":186,"stars":4.5,"state":"AZ"}
{"address":"4139 W Bell Rd","attributes":{"GoodForKids":true},"business_id":"3MUP4WhkJcw9YPdhQ3Ma5g","categories":["Active Life","Diving"],"city":"Phoenix","hours":{},"is_open":0,"latitude":33.6386852,"longitude":-112.147993,"name":"Scuba Specialties","neighborhood":"","postal_code":"85053","review_count":3,"stars":3.5,"state":"AZ"}
{"address":"67 Mayfield Road","attributes":{"Alcohol":"none","Ambience":{"casual":false,"classy":false,"hipster":false,"intimate":false,"romantic":false,"touristy":false,"trendy":false,"upscale":false},"BikeParking":true,"BusinessAcceptsCreditCards":true,"BusinessParking":{"garage":false,"lot":false,"street":false,"valet":false},"DriveThru":false,"GoodForKids":true,"HasTV":true,"NoiseLevel":"quiet","OutdoorSeating":false,"RestaurantsAttire":"casual","RestaurantsDelivery":true,"RestaurantsGoodForGroups":true,"RestaurantsPriceRange2":2,"RestaurantsReservations":false,"RestaurantsTableService":false,"RestaurantsTakeOut":true,"WiFi":"no"},"business_id":"lhryYODlAmzQLZGkwmZ8wA","categories":["Fast Food","Chinese","Restaurants"],"city":"Edinburgh","hours":{"Friday":"16:30-22:30","Monday":"16:30-22:00","Saturday":"16:30-22:30","Sunday":"16:30-22:00","Thursday":"16:30-22:00","Tuesday":"16:30-22:00","Wednesday":"16:30-22:00"},"is_open":1,"latitude":55.9302891,"longitude":-3.1759457,"name":"Mayfield Village","neighborhood":"","postal_code":"EH9 3AA","review_count":3,"stars":3.5,"state":"EDH"}
{"address":"4500 E Bell Rd, Bldg 6, Ste 152","attributes":{"AcceptsInsurance":true,"BusinessAcceptsCreditCards":true,"ByAppointmentOnly":false},"business_id":"4D68H-dtwj5qpBlx3tZtSw","categories":["Rehabilitation Center","Massage Therapy","Chiropractors","Health & Medical"],"city":"Phoenix","hours":{"Friday":"14:00-19:00","Monday":"14:00-19:00","Thursday":"7:00-12:00","Tuesday":"7:00-12:00","Wednesday":"14:00-19:00"},"is_open":1,"latitude":33.6407152,"longitude":-111.9842585,"name":"Arizona Sports Chiropractic & Wellness Center","neighborhood":"","postal_code":"85032","review_count":9,"stars":5.0,"state":"AZ"}
{"address":"2400 S Dobson Rd","attributes":{"BikeParking":true,"BusinessParking":{"garage":false,"lot":false,"street":false,"valet":false,"validated":false},"GoodForKids":true},"business_id":"pU126ZZjCsjH-B4LuxnNUg","categories":["Parks","Playgrounds","Active Life"],"city":"Chandler","hours":{},"is_open":1,"latitude":33.271907,"longitude":-111.877985,"name":"Chuparosa Park","neighborhood":"","postal_code":"85249","review_count":13,"stars":4.5,"state":"AZ"}
{"address":"28255 N Tatum Blvd, Ste 5","attributes":{"BikeParking":true,"BusinessAcceptsBitcoin":false,"BusinessAcceptsCreditCards":true,"BusinessParking":{"garage":false,"lot":true,"street":false,"valet":false,"validated":false},"Caters":false,"DogsAllowed":false,"RestaurantsDelivery":false,"RestaurantsPriceRange2":2,"RestaurantsTakeOut":true,"WheelchairAccessible":true,"WiFi":"free"},"business_id":"JA-WeSdtaFagoI6doN0Sbw","categories":["Ice Cream & Frozen Yogurt","Food","Cupcakes"],"city":"Cave Creek","hours":{"Friday":"10:00-20:00","Monday":"10:00-20:00","Saturday":"10:00-20:00","Sunday":"12:00-18:00","Thursday":"10:00-20:00","Tuesday":"10:00-20:00","Wednesday":"10:00-20:00"},"is_open":1,"latitude":33.7418705,"longitude":-111.9775345,"name":"Smallcakes Cave Creek","neighborhood":"","postal_code":"85331","review_count":26,"stars":4.5,"state":"AZ"}
{"address":"303 Boulevard Labelle","attributes":{"GoodForKids":false},"business_id":"ISMo_cIiMFNCwauzXwgaQQ","categories":["Active Life","Gyms","Fitness & Instruction","Sports Clubs"],"city":"Rosemere","hours":{},"is_open":0,"latitude":45.6285361,"longitude":-73.8096384,"name":"Gold's Gym","neighborhood":"","postal_code":"J7A 2H7","review_count":3,"stars":3.5,"state":"QC"}
{"address":"1203 E Charleston Blvd, Ste 140","attributes":{"Alcohol":"beer_and_wine","Ambience":{"casual":true,"classy":false,"divey":false,"hipster":false,"intimate":false,"romantic":false,"touristy":false,"trendy":false,"upscale":false},"BikeParking":false,"BusinessAcceptsCreditCards":true,"BusinessParking":{"garage":false,"lot":true,"street":false,"valet":false,"validated":false},"Caters":true,"DogsAllowed":false,"GoodForKids":true,"GoodForMeal":{"breakfast":false,"brunch":true,"dessert":false,"dinner":true,"latenight":false,"lunch":true},"HasTV":true,"NoiseLevel":"average","OutdoorSeating":false,"RestaurantsAttire":"casual","RestaurantsDelivery":false,"RestaurantsGoodForGroups":true,"RestaurantsPriceRange2":2,"RestaurantsReservations":true,"RestaurantsTableService":true,"RestaurantsTakeOut":true,"WheelchairAccessible":true,"WiFi":"no"},"business_id":"YTqtM2WFhcMZGeAGA08Cfg","categories":["Seafood","Restaurants","Specialty Food","Ethnic Food","Food","Mexican"],"city":"Las Vegas","hours":{"Friday":"10:30-23:00","Monday":"10:30-21:00","Saturday":"10:15-23:00","Sunday":"10:15-21:00","Thursday":"10:30-21:00","Tuesday":"10:30-21:00","Wednesday":"10:30-21:00"},"is_open":1,"latitude":36.159363,"longitude":-115.135949,"name":"Mariscos Playa Escondida","neighborhood":"Downtown","postal_code":"89104","review_count":330,"stars":4.5,"state":"NV"}
{"address":"34422 N Scottsdale Rd, Ste A3","attributes":{"BusinessAcceptsCreditCards":true,"BusinessParking":{"garage":false,"lot":false,"street":true,"valet":false,"validated":false},"ByAppointmentOnly":false,"GoodForKids":true,"RestaurantsPriceRange2":3,"WheelchairAccessible":true},"business_id":"G_i13VUpuvnbutbN97u84g","categories":["Skin Care","Nail Salons","Beauty & Spas","Hair Salons"],"city":"Scottsdale","hours":{"Friday":"8:00-17:00","Monday":"9:00-15:00","Saturday":"9:00-15:00","Thursday":"8:00-17:00","Tuesday":"8:00-17:00","Wednesday":"8:00-17:00"},"is_open":1,"latitude":33.7978115,"longitude":-111.9292904,"name":"Salon Picasso","neighborhood":"","postal_code":"85266","review_count":7,"stars":4.5,"state":"AZ"}
{"address":"3045 W Agua Fria Fwy, Ste 103","attributes":{"AcceptsInsurance":false,"BikeParking":true,"BusinessAcceptsCreditCards":true,"BusinessParking":{"garage":false,"lot":false,"street":false,"valet":false,"validated":false},"ByAppointmentOnly":false,"GoodForKids":true,"RestaurantsPriceRange2":2},"business_id":"pBAGpYFqKKQIU_E3Gfk2iA","categories":["Barbers","Massage","Hair Stylists","Hair Salons","Beauty & Spas"],"city":"Phoenix","hours":{},"is_open":1,"latitude":33.6677142102,"longitude":-112.124459222,"name":"Sport Clips","neighborhood":"","postal_code":"85027","review_count":8,"stars":3.5,"state":"AZ"}
{"address":"4080 Steeles Avenue E","attributes":{"NoiseLevel":"average","RestaurantsAttire":"casual"},"business_id":"8gzRJEmYJGTCdahRKcafXw","categories":["Restaurants","Food","Tea Rooms","Chinese"],"city":"Markham","hours":{},"is_open":0,"latitude":43.8226509094,"longitude":-79.313331604,"name":"Tea & Kitchen","neighborhood":"Scarborough","postal_code":"L3R","review_count":3,"stars":2.5,"state":"ON"}
{"address":"9902 W Santa Fe Dr","attributes":{"BusinessAcceptsCreditCards":true},"business_id":"maKBahyKfjT-_2gc47fScA","categories":["Oil Change Stations","Automotive","Used Car Dealers","Auto Repair","Body Shops"],"city":"Sun City","hours":{"Friday":"8:00-17:00","Monday":"8:00-17:00","Saturday":"9:00-14:00","Thursday":"8:00-17:00","Tuesday":"8:00-17:00","Wednesday":"8:00-17:00"},"is_open":1,"latitude":33.5989377,"longitude":-112.2720805,"name":"Automotive Dynamics","neighborhood":"","postal_code":"85351","review_count":6,"stars":5.0,"state":"AZ"}
{"address":"517 Half Mile Rd","attributes":{"BikeParking":true,"BusinessAcceptsCreditCards":true,"BusinessParking":{"garage":false,"lot":true,"street":false,"valet":false,"validated":false},"RestaurantsPriceRange2":2,"WheelchairAccessible":true},"business_id":"k-C9Y1Fymhm_6pqlO3A9lQ","categories":["Bike Rentals","Bikes","Sporting Goods","Shopping","Active Life","Local Services","Bike Repair/Maintenance"],"city":"Verona","hours":{"Friday":"10:00-17:00","Monday":"10:00-18:00","Saturday":"10:00-17:00","Thursday":"10:00-18:00","Tuesday":"10:00-18:00","Wednesday":"10:00-18:00"},"is_open":1,"latitude":42.987587,"longitude":-89.5458589,"name":"Atkins' Verona Bicycle Shoppe","neighborhood":"","postal_code":"53593","review_count":11,"stars":5.0,"state":"WI"}
{"address":"Rotebühlplatz 33","attributes":{"BusinessAcceptsCreditCards":false,"BusinessParking":{"garage":false,"lot":false,"street":false,"valet":false,"validated":false},"RestaurantsPriceRange2":2,"RestaurantsTakeOut":true},"business_id":"3HfRVRP7dWzOzrfbZmzk-Q","categories":["Food"],"city":"Stuttgart","hours":{"Friday":"11:00-3:00","Monday":"11:00-0:00","Saturday":"11:00-3:00","Thursday":"11:00-0:00","Tuesday":"11:00-0:00","Wednesday":"11:00-0:00"},"is_open":1,"latitude":48.7739,"longitude":9.17104,"name":"Petrosilius","neighborhood":"","postal_code":"70178","review_count":3,"stars":3.5,"state":"BW"}
{"address":"6315 Losee Rd, Ste 101","attributes":{"BikeParking":true,"BusinessAcceptsBitcoin":false,"BusinessAcceptsCreditCards":true,"BusinessParking":{"garage":false,"lot":true,"street":false,"valet":false,"validated":false},"Caters":true,"DogsAllowed":false,"RestaurantsPriceRange2":1,"RestaurantsTakeOut":true,"WheelchairAccessible":true,"WiFi":"free"},"business_id":"FQCKnbmIPlg2NNq4KBSBzg","categories":["Shaved Ice","Food","Desserts","Ice Cream & Frozen Yogurt","Juice Bars & Smoothies"],"city":"North Las Vegas","hours":{"Friday":"11:00-23:00","Monday":"11:00-22:00","Saturday":"11:00-23:00","Thursday":"11:00-22:00","Tuesday":"11:00-22:00","Wednesday":"11:00-22:00"},"is_open":1,"latitude":36.274761,"longitude":-115.1174904,"name":"Bahama Buck's","neighborhood":"","postal_code":"89081","review_count":60,"stars":4.5,"state":"NV"}
{"address":"1135 N Mesa Dr","attributes":{"BikeParking":true,"BusinessAcceptsCreditCards":true,"BusinessParking":{"garage":false,"lot":true,"street":false,"valet":false,"validated":false},"ByAppointmentOnly":false,"RestaurantsPriceRange2":2,"RestaurantsTakeOut":false},"business_id":"aBGT2NQ9fSesoB93-eVj5w","categories":["Food","Shopping","Photography Stores & Services","Beauty & Spas","Cosmetics & Beauty Supply","Drugstores","Convenience Stores"],"city":"Mesa","hours":{"Friday":"0:00-0:00","Monday":"0:00-0:00","Saturday":"0:00-0:00","Sunday":"0:00-0:00","Thursday":"0:00-0:00","Tuesday":"0:00-0:00","Wednesday":"0:00-0:00"},"is_open":1,"latitude":33.4360737767,"longitude":-111.822258046,"name":"Walgreens","neighborhood":"","postal_code":"85201","review_count":13,"stars":2.0,"state":"AZ"}
{"address":"South Point Hotel & Casino, 9777 S Las Vegas Blvd","attributes":{"Alcohol":"full_bar","Ambience":{"casual":true,"classy":false,"divey":false,"hipster":false,"intimate":false,"romantic":false,"touristy":false,"trendy":false,"upscale":false},"BikeParking":false,"BusinessAcceptsCreditCards":true,"BusinessParking":{"garage":true,"lot":false,"street":false,"valet":false,"validated":false},"Caters":false,"GoodForKids":true,"GoodForMeal":{"breakfast":false,"brunch":false,"dessert":false,"dinner":true,"latenight":false,"lunch":true},"HasTV":false,"NoiseLevel":"average","OutdoorSeating":false,"RestaurantsAttire":"casual","RestaurantsDelivery":false,"RestaurantsGoodForGroups":true,"RestaurantsPriceRange2":2,"RestaurantsReservations":true,"RestaurantsTableService":true,"RestaurantsTakeOut":true,"WheelchairAccessible":true,"WiFi":"no"},"business_id":"Oto60yDwk1z72WmfWEYrjg","categories":["Food","Restaurants","Mexican"],"city":"Las Vegas","hours":{"Saturday":"11:00-23:00","Sunday":"11:00-23:00","Thursday":"10:00-23:00","Wednesday":"10:00-23:00"},"is_open":1,"latitude":36.0121912,"longitude":-115.1739932,"name":"Baja Miguel's","neighborhood":"Southeast","postal_code":"89183","review_count":175,"stars":3.0,"state":"NV"}
{"address":"One Oxford Centre","attributes":{"BikeParking":true,"BusinessAcceptsCreditCards":true,"BusinessParking":{"garage":true,"lot":false,"street":false,"valet":false,"validated":false},"OutdoorSeating":false,"RestaurantsPriceRange2":2,"RestaurantsTakeOut":true,"WiFi":"free"},"business_id":"EQEjBxW64QzleZHvRYA31A","categories":["Coffee & Tea","Bakeries","Food"],"city":"Pittsburgh","hours":{"Friday":"5:30-18:30","Monday":"5:30-18:30","Thursday":"5:30-18:30","Tuesday":"5:30-18:30","Wednesday":"5:30-18:30"},"is_open":1,"latitude":40.4380697,"longitude":-79.9982823,"name":"Starbucks","neighborhood":"Downtown","postal_code":"15219","review_count":4,"stars":4.0,"state":"PA"}
{"address":"3306A N Davidson St","attributes":{"Alcohol":"beer_and_wine","Ambience":{"casual":true,"classy":false,"divey":true,"hipster":true,"intimate":false,"romantic":false,"touristy":false,"trendy":false,"upscale":false},"BikeParking":true,"BusinessAcceptsBitcoin":false,"BusinessAcceptsCreditCards":true,"BusinessParking":{"garage":false,"lot":false,"street":true,"valet":false,"validated":false},"Caters":true,"DogsAllowed":false,"GoodForKids":true,"GoodForMeal":{"breakfast":false,"brunch":false,"dessert":false,"dinner":false,"latenight":false,"lunch":true},"HasTV":true,"NoiseLevel":"average","OutdoorSeating":true,"RestaurantsAttire":"casual","RestaurantsDelivery":true,"RestaurantsGoodForGroups":true,"RestaurantsPriceRange2":1,"RestaurantsReservations":false,"RestaurantsTableService":false,"RestaurantsTakeOut":true,"WheelchairAccessible":true,"WiFi":"free"},"business_id":"5GJ60TyviQnyg2257CAGuA","categories":["Restaurants","Waffles","Sandwiches","Delis"],"city":"Charlotte","hours":{"Friday":"12:00-0:00","Monday":"12:00-22:00","Saturday":"11:00-0:00","Sunday":"12:00-19:00","Thursday":"12:00-22:00","Tuesday":"12:00-22:00","Wednesday":"12:00-22:00"},"is_open":1,"latitude":35.2477994,"longitude":-80.8040482,"name":"FūD at Salud","neighborhood":"NoDa","postal_code":"28205","review_count":71,"stars":4.5,"state":"NC"}
{"address":"2949 N Scottsdale Rd","attributes":{},"business_id":"hFGw70MEv4P1NqU6DIA5xg","categories":[],"city":"Scottsdale","hours":{},"is_open":0,"latitude":33.4817591,"longitude":-111.9260689,"name":"Bookmaster","neighborhood":"","postal_code":"85251","review_count":3,"stars":3.5,"state":"AZ"}
{"address":"7309 E Stetson Dr","attributes":{"BikeParking":true,"BusinessAcceptsCreditCards":true,"BusinessParking":{"garage":true,"lot":true,"street":true,"valet":true,"validated":false},"DogsAllowed":true,"RestaurantsPriceRange2":2,"WheelchairAccessible":true},"business_id":"HHJmQuTb6YR3vLY9q4tXQw","categories":["Tobacco Shops","Shopping","Vape Shops"],"city":"Scottsdale","hours":{"Friday":"10:00-3:00","Monday":"10:00-0:00","Saturday":"10:00-3:00","Sunday":"10:00-3:00","Thursday":"10:00-3:00","Tuesday":"10:00-0:00","Wednesday":"10:00-0:00"},"is_open":1,"latitude":33.4993787,"longitude":-111.9236737,"name":"Gravitate Smoke Shop 2","neighborhood":"","postal_code":"85251","review_count":5,"stars":4.0,"state":"AZ"}
{"address":"7117 E 6th Ave","attributes":{"Alcohol":"full_bar","Ambience":{"casual":true,"classy":false,"divey":false,"hipster":false,"intimate":false,"romantic":false,"touristy":false,"trendy":false,"upscale":false},"BikeParking":true,"BusinessAcceptsCreditCards":true,"BusinessParking":{"garage":false,"lot":false,"street":true,"valet":false,"validated":false},"Caters":false,"DogsAllowed":true,"GoodForKids":false,"GoodForMeal":{"breakfast":false,"brunch":false,"dessert":false,"dinner":true,"latenight":true,"lunch":false},"HasTV":true,"NoiseLevel":"loud","OutdoorSeating":true,"RestaurantsAttire":"casual","RestaurantsDelivery":false,"RestaurantsGoodForGroups":true,"RestaurantsPriceRange2":2,"RestaurantsReservations":true,"RestaurantsTableService":true,"RestaurantsTakeOut":true,"WheelchairAccessible":true,"WiFi":"free"},"business_id":"wJY74R0zAgjxvBf-d4gm9g","categories":["American (New)","Restaurants"],"city":"Scottsdale","hours":{"Friday":"16:00-2:00","Monday":"11:00-22:00","Saturday":"11:00-2:00","Sunday":"11:00-22:00","Thursday":"16:00-23:00","Tuesday":"16:00-22:00","Wednesday":"16:00-22:00"},"is_open":1,"latitude":33.4987215,"longitude":-111.9274506,"name":"Kelly's At Southbridge","neighborhood":"","postal_code":"85251","review_count":224,"stars":3.5,"state":"AZ"}
{"address":"5445 Yonge Street","attributes":{"Alcohol":"none","Ambience":{"casual":true,"classy":false,"hipster":false,"intimate":false,"romantic":false,"touristy":false,"trendy":false,"upscale":false},"BikeParking":true,"BusinessAcceptsCreditCards":true,"BusinessParking":{"garage":false,"lot":false,"street":true,"valet":false,"validated":false},"Caters":false,"GoodForKids":true,"GoodForMeal":{"breakfast":false,"brunch":false,"dessert":false,"dinner":true,"latenight":false,"lunch":true},"HasTV":false,"NoiseLevel":"average","OutdoorSeating":false,"RestaurantsAttire":"casual","RestaurantsDelivery":false,"RestaurantsGoodForGroups":true,"RestaurantsPriceRange2":1,"RestaurantsReservations":false,"RestaurantsTableService":true,"RestaurantsTakeOut":true,"WheelchairAccessible":true,"WiFi":"no"},"business_id":"iMoFE2g4kDG4FfKLJvk3Jw","categories":["Restaurants","Korean"],"city":"North York","hours":{"Friday":"11:00-22:30","Monday":"11:00-22:30","Saturday":"11:00-22:30","Sunday":"11:00-22:00","Thursday":"11:00-22:30","Tuesday":"11:00-22:30","Wednesday":"11:00-22:30"},"is_open":1,"latitude":43.7770435193,"longitude":-79.4145441055,"name":"Buk Chang Dong Soon Tofu","neighborhood":"Willowdale","postal_code":"M2N 5S1","review_count":267,"stars":4.0,"state":"ON"}
{"address":"8255 Las Vegas Blvd S","attributes":{"BusinessAcceptsCreditCards":false},"business_id":"vMRWkz0wb3g4HjW_OeAppA","categories":["Home Services","Real Estate"],"city":"Las Vegas","hours":{},"is_open":1,"latitude":36.0398964,"longitude":-115.1758223,"name":"One Las Vegas Home Owners Association","neighborhood":"Southeast","postal_code":"89123","review_count":3,"stars":4.5,"state":"NV"}
{"address":"10430 Northfield Rd","attributes":{"Alcohol":"none","Ambience":{"casual":false,"classy":false,"divey":false,"hipster":false,"intimate":false,"romantic":false,"touristy":false,"trendy":false,"upscale":false},"BikeParking":true,"BusinessAcceptsBitcoin":false,"BusinessAcceptsCreditCards":true,"BusinessParking":{"garage":false,"lot":true,"street":false,"valet":false,"validated":false},"Caters":true,"DogsAllowed":false,"GoodForKids":true,"GoodForMeal":{"breakfast":false,"brunch":false,"dessert":false,"dinner":false,"latenight":false,"lunch":false},"HasTV":false,"NoiseLevel":"average","OutdoorSeating":false,"RestaurantsAttire":"casual","RestaurantsDelivery":true,"RestaurantsGoodForGroups":true,"RestaurantsPriceRange2":2,"RestaurantsReservations":false,"RestaurantsTableService":false,"RestaurantsTakeOut":true,"WheelchairAccessible":true,"WiFi":"free"},"business_id":"7HFRdxVttyY9GiMpywhhYw","categories":["Pizza","Caterers","Italian","Wraps","Event Planning & Services","Restaurants"],"city":"Northfield","hours":{"Friday":"11:00-0:00","Monday":"11:00-22:00","Saturday":"11:00-0:00","Sunday":"12:00-22:00","Thursday":"11:00-23:00","Tuesday":"11:00-22:00","Wednesday":"11:00-22:00"},"is_open":1,"latitude":41.342763,"longitude":-81.529281,"name":"Zeppe's Pizzeria","neighborhood":"","postal_code":"44067","review_count":7,"stars":3.0,"state":"OH"}
{"address":"1322 E Carson St","attributes":{"Ambience":{"casual":false,"classy":false,"divey":false,"hipster":false,"intimate":false,"romantic":false,"touristy":false,"trendy":false,"upscale":false},"BusinessAcceptsCreditCards":true,"GoodForKids":true,"GoodForMeal":{"breakfast":false,"brunch":false,"dessert":false,"dinner":false,"latenight":false,"lunch":false},"HasTV":false,"OutdoorSeating":false,"RestaurantsAttire":"casual","RestaurantsDelivery":true,"RestaurantsGoodForGroups":true,"RestaurantsPriceRange2":2,"RestaurantsReservations":false,"RestaurantsTableService":false,"RestaurantsTakeOut":true},"business_id":"G7QZWVm-ytyKHpvUq3ggFA","categories":["Restaurants","Pizza"],"city":"Pittsburgh","hours":{"Friday":"16:00-4:00","Monday":"16:00-3:00","Saturday":"16:00-4:00","Sunday":"16:00-3:00","Thursday":"16:00-4:00","Tuesday":"16:00-3:00","Wednesday":"16:00-3:00"},"is_open":1,"latitude":40.428624,"longitude":-79.9843691,"name":"Sal's New York Pizzeria","neighborhood":"South Side","postal_code":"15203","review_count":19,"stars":3.0,"state":"PA"}
{"address":"3105 Antheo Ct","attributes":{"Alcohol":"none","Ambience":{"casual":false,"classy":false,"divey":false,"hipster":false,"intimate":false,"romantic":false,"touristy":false,"trendy":false,"upscale":false},"BikeParking":true,"BusinessAcceptsCreditCards":true,"BusinessParking":{"garage":false,"lot":false,"street":false,"valet":false,"validated":false},"Caters":true,"DriveThru":false,"GoodForKids":true,"GoodForMeal":{"breakfast":false,"brunch":false,"dessert":false,"dinner":false,"latenight":false,"lunch":false},"HasTV":false,"NoiseLevel":"average","RestaurantsAttire":"casual","RestaurantsDelivery":false,"RestaurantsGoodForGroups":false,"RestaurantsPriceRange2":1,"RestaurantsReservations":false,"RestaurantsTableService":false,"RestaurantsTakeOut":true},"business_id":"0u2xwNy07-z3gv0tpuJX2Q","categories":["Fast Food","Restaurants","Sandwiches"],"city":"Murrysville","hours":{},"is_open":1,"latitude":40.428776,"longitude":-79.68838,"name":"Subway","neighborhood":"","postal_code":"15668","review_count":3,"stars":3.5,"state":"PA"}
{"address":"12511 Detroit Ave","attributes":{},"business_id":"k4RXLrsCyHcRkb41Y5Ba5g","categories":["Auto Repair","Towing","Automotive"],"city":"Lakewood","hours":{},"is_open":1,"latitude":41.484011,"longitude":-81.775949,"name":"Detroit Lakewood Automotive","neighborhood":"","postal_code":"44107","review_count":5,"stars":4.0,"state":"OH"}
{"address":"1450 W. 117th Street","attributes":{"BusinessAcceptsCreditCards":true},"business_id":"CFPZV3qKJItRvWHimu359w","categories":["Auto Repair","Auto Parts & Supplies","Oil Change Stations","Automotive","Tires"],"city":"Lakewood","hours":{"Friday":"7:30-18:00","Monday":"7:30-18:00","Saturday":"7:30-18:00","Thursday":"7:30-18:00","Tuesday":"7:30-18:00","Wednesday":"7:30-18:00"},"is_open":1,"latitude":41.4822164,"longitude":-81.7692231,"name":"Midas","neighborhood":"","postal_code":"44107","review_count":13,"stars":3.0,"state":"OH"}
{"address":"1812 E Charleston Blvd","attributes":{"BikeParking":false,"BusinessAcceptsCreditCards":true,"BusinessParking":{"garage":false,"lot":false,"street":false,"valet":false,"validated":false},"RestaurantsPriceRange2":2},"business_id":"dRAla9mt2a3-nF1D26VU2A","categories":["Shopping","Drugstores"],"city":"Las Vegas","hours":{},"is_open":1,"latitude":36.156985,"longitude":-115.1247271,"name":"Cvs","neighborhood":"Downtown","postal_code":"89104","review_count":4,"stars":2.0,"state":"NV"}
{"address":"3011 S Lindsay Rd, Ste 110","attributes":{"AcceptsInsurance":true,"ByAppointmentOnly":true},"business_id":"MJNJcMCr555bS78FuGcu-A","categories":["Family Practice","Doctors","Health & Medical"],"city":"Gilbert","hours":{"Monday":"8:00-17:00","Thursday":"8:00-17:00","Tuesday":"8:00-17:00","Wednesday":"8:00-17:00"},"is_open":1,"latitude":33.295216,"longitude":-111.773191,"name":"Gilbert Family Medicine","neighborhood":"","postal_code":"85296","review_count":10,"stars":2.5,"state":"AZ"}
{"address":"18534 Pearl Rd","attributes":{"BusinessAcceptsCreditCards":true},"business_id":"fOQBnkY3KK-qqkD-5PtrHA","categories":["Auto Detailing","Car Wash","Automotive"],"city":"Strongsville","hours":{"Friday":"8:00-19:00","Monday":"8:00-19:00","Saturday":"8:00-19:00","Sunday":"9:00-18:00","Thursday":"8:00-19:00","Tuesday":"8:00-19:00","Wednesday":"8:00-19:00"},"is_open":1,"latitude":41.2845223,"longitude":-81.8359535,"name":"Sgt. Clean's Car Wash","neighborhood":"","postal_code":"44136","review_count":8,"stars":3.5,"state":"OH"}
{"address":"17240 Royalton Rd","attributes":{"BikeParking":false,"BusinessAcceptsBitcoin":false,"BusinessAcceptsCreditCards":true,"BusinessParking":{"garage":false,"lot":true,"street":false,"valet":false,"validated":false},"ByAppointmentOnly":false,"RestaurantsPriceRange2":2,"WheelchairAccessible":true},"business_id":"-iu4FxdfxN4rU4Fu9BjiFw","categories":["Shopping","Bridal","Dry Cleaning & Laundry","Local Services","Sewing & Alterations"],"city":"Strongsville","hours":{"Friday":"8:00-19:00","Monday":"8:00-19:00","Saturday":"8:00-18:00","Thursday":"8:00-19:00","Tuesday":"8:00-19:00","Wednesday":"8:00-19:00"},"is_open":1,"latitude":41.3140625,"longitude":-81.8206835,"name":"Alterations Express","neighborhood":"","postal_code":"44136","review_count":3,"stars":4.0,"state":"OH"}
{"address":"7200 Cathedral Rock Dr, Ste 250","attributes":{"AcceptsInsurance":true,"ByAppointmentOnly":true},"business_id":"jzdIJnpn1_H6fgKNHFsSSg","categories":["Health & Medical","Doctors"],"city":"Las Vegas","hours":{"Friday":"8:00-17:00","Monday":"8:00-17:00","Thursday":"8:00-17:00","Tuesday":"8:00-17:00","Wednesday":"8:00-17:00"},"is_open":1,"latitude":36.2058595,"longitude":-115.2479948,"name":"Desert West Surgery","neighborhood":"","postal_code":"89128","review_count":4,"stars":4.0,"state":"NV"}
{"address":"19 Mercer Street","attributes":{"Alcohol":"full_bar","Ambience":{"casual":false,"classy":false,"hipster":false,"intimate":false,"romantic":false,"touristy":false,"trendy":true,"upscale":false},"BikeParking":true,"BusinessAcceptsCreditCards":true,"BusinessParking":{"garage":false,"lot":false,"street":true,"valet":false,"validated":false},"Caters":true,"GoodForKids":false,"GoodForMeal":{"breakfast":false,"brunch":false,"dessert":false,"dinner":true,"latenight":true,"lunch":false},"HasTV":false,"NoiseLevel":"loud","OutdoorSeating":false,"RestaurantsAttire":"dressy","RestaurantsDelivery":false,"RestaurantsGoodForGroups":true,"RestaurantsPriceRange2":3,"RestaurantsReservations":true,"RestaurantsTableService":true,"RestaurantsTakeOut":true,"WheelchairAccessible":false,"WiFi":"free"},"business_id":"oMcKvfNGX2HleFxYg1VGqg","categories":["Italian","Restaurants"],"city":"Toronto","hours":{"Friday":"17:00-3:00","Saturday":"17:00-3:00","Thursday":"17:00-23:30","Tuesday":"17:00-23:30","Wednesday":"17:00-23:30"},"is_open":1,"latitude":43.6456871,"longitude":-79.3904932,"name":"Buonanotte","neighborhood":"Entertainment District","postal_code":"M5V 1H2","review_count":66,"stars":2.0,"state":"ON"}
{"address":"3868 Boulevard Saint-Laurent","attributes":{},"business_id":"bSm8d6-6uxl7H1HpMOqAdw","categories":["Fashion","Shopping","Accessories","Hats"],"city":"Montréal","hours":{"Friday":"10:30-19:00","Monday":"10:30-18:00","Sunday":"11:00-18:00","Thursday":"10:30-19:00","Tuesday":"10:30-18:00","Wednesday":"10:30-18:00"},"is_open":1,"latitude":45.5160751,"longitude":-73.5774516,"name":"Ophelie Hats","neighborhood":"Plateau-Mont-Royal","postal_code":"H2W 1Y2","review_count":3,"stars":4.5,"state":"QC"}
{"address":"700 Hargrove St","attributes":{"BusinessAcceptsCreditCards":true},"business_id":"c446txzKwRIU4l3R9Pa20A","categories":["Junk Removal & Hauling","Professional Services","Home Services","Towing","Boat Repair","Trailer Repair","Building Supplies","Local Services","Automotive","Commercial Truck Repair","Roadside Assistance","Tires"],"city":"Pittsburgh","hours":{"Friday":"0:00-0:00","Monday":"0:00-0:00","Saturday":"0:00-0:00","Sunday":"0:00-0:00","Thursday":"0:00-0:00","Tuesday":"0:00-0:00","Wednesday":"0:00-0:00"},"is_open":1,"latitude":40.4144565,"longitude":-80.0129455,"name":"McGann & Chester","neighborhood":"Mt. Washington","postal_code":"15226","review_count":5,"stars":2.5,"state":"PA"}
{"address":"Epplestr. 2","attributes":{"Alcohol":"beer_and_wine","RestaurantsGoodForGroups":true,"RestaurantsPriceRange2":2},"business_id":"Q4go7pt_ygwzXLME7kW10Q","categories":["Bars","Pubs","Restaurants","Nightlife"],"city":"Stuttgart","hours":{"Friday":"17:00-1:00","Monday":"17:00-0:00","Saturday":"20:00-1:00","Thursday":"17:00-0:00","Tuesday":"17:00-0:00","Wednesday":"17:00-0:00"},"is_open":1,"latitude":48.7492,"longitude":9.16965,"name":"Pils-Stube Ritter","neighborhood":"","postal_code":"70597","review_count":3,"stars":3.0,"state":"BW"}
{"address":"9336 W Sahara Ave","attributes":{"BusinessAcceptsCreditCards":true},"business_id":"mAK6DD0pEOOdQzj08gWW5g","categories":["Auto Parts & Supplies","Automotive"],"city":"Las Vegas","hours":{"Friday":"7:30-22:00","Monday":"7:30-22:00","Saturday":"7:30-22:00","Sunday":"7:30-21:00","Thursday":"7:30-22:00","Tuesday":"7:30-22:00","Wednesday":"7:30-22:00"},"is_open":1,"latitude":36.1464299161,"longitude":-115.29900102,"name":"AutoZone","neighborhood":"Westside","postal_code":"89117","review_count":36,"stars":4.0,"state":"NV"}
{"address":"1910 Cochran Rd","attributes":{"Alcohol":"none","Ambience":{"casual":true,"classy":false,"divey":false,"hipster":false,"intimate":false,"romantic":false,"touristy":false,"trendy":false,"upscale":false},"BikeParking":true,"BusinessAcceptsCreditCards":true,"BusinessParking":{"garage":false,"lot":true,"street":false,"valet":false,"validated":false},"Caters":true,"GoodForKids":false,"GoodForMeal":{"breakfast":false,"brunch":false,"dessert":false,"dinner":true,"latenight":false,"lunch":true},"HasTV":false,"NoiseLevel":"average","OutdoorSeating":true,"RestaurantsAttire":"casual","RestaurantsDelivery":false,"RestaurantsGoodForGroups":true,"RestaurantsPriceRange2":2,"RestaurantsReservations":true,"RestaurantsTableService":true,"RestaurantsTakeOut":true,"WiFi":"no"},"business_id":"ZPVhjltJcQ-YnaoV-h-FeA","categories":["Italian","Restaurants"],"city":"Pittsburgh","hours":{"Friday":"16:00-22:00","Monday":"11:00-15:00","Saturday":"16:00-22:00","Thursday":"16:00-21:00","Tuesday":"16:00-21:00","Wednesday":"16:00-21:00"},"is_open":1,"latitude":40.394199,"longitude":-80.062986,"name":"Arpino Trattoria","neighborhood":"","postal_code":"15220","review_count":44,"stars":4.0,"state":"PA"}
{"address":"6040 S Rainbow Blvd, Ste B2","attributes":{"AcceptsInsurance":true,"BusinessAcceptsCreditCards":true,"ByAppointmentOnly":true},"business_id":"PFmB_iraAbTN9XMka7soqQ","categories":["Health & Medical","Cosmetic Dentists","General Dentistry","Dentists","Orthodontists"],"city":"Las Vegas","hours":{"Friday":"7:00-19:00","Monday":"7:00-19:00","Saturday":"8:00-13:00","Thursday":"7:00-19:00","Tuesday":"7:00-19:00","Wednesday":"7:00-19:00"},"is_open":1,"latitude":36.0790019,"longitude":-115.2421993,"name":"Bella Smiles","neighborhood":"Spring Valley","postal_code":"89118","review_count":109,"stars":5.0,"state":"NV"}
{"address":"1837B Sainte-Catherine W","attributes":{"BikeParking":false,"BusinessAcceptsCreditCards":true,"BusinessParking":{"garage":false,"lot":false,"street":false,"valet":false,"validated":false},"ByAppointmentOnly":false,"RestaurantsPriceRange2":3},"business_id":"gc5oiK75fSUwmKeSYKItHg","categories":["Shopping","Beauty & Spas","Cosmetics & Beauty Supply"],"city":"Montréal","hours":{},"is_open":1,"latitude":45.4933373,"longitude":-73.5800707,"name":"Korean Cosmetics","neighborhood":"Ville-Marie","postal_code":"H3H 1M2","review_count":4,"stars":4.0,"state":"QC"}
{"address":"14175 W Indian School Rd","attributes":{"Ambience":{"casual":false,"classy":false,"divey":false,"hipster":false,"intimate":false,"romantic":false,"touristy":false,"trendy":false,"upscale":false},"BikeParking":true,"BusinessAcceptsCreditCards":true,"Caters":false,"DriveThru":false,"GoodForKids":true,"GoodForMeal":{"breakfast":false,"brunch":false,"dessert":false,"dinner":false,"latenight":false,"lunch":false},"HasTV":false,"NoiseLevel":"quiet","OutdoorSeating":false,"RestaurantsAttire":"casual","RestaurantsDelivery":false,"RestaurantsGoodForGroups":true,"RestaurantsPriceRange2":2,"RestaurantsReservations":false,"RestaurantsTakeOut":true},"business_id":"XuLXX5B5W1P-iNpgXmqmjQ","categories":["Fast Food","Sandwiches","Restaurants"],"city":"Goodyear","hours":{"Friday":"8:00-22:00","Monday":"8:00-22:00","Saturday":"8:00-22:00","Sunday":"9:00-22:00","Thursday":"8:00-22:00","Tuesday":"8:00-22:00","Wednesday":"8:00-22:00"},"is_open":1,"latitude":33.484027,"longitude":-112.363106,"name":"Subway","neighborhood":"","postal_code":"85338","review_count":6,"stars":2.0,"state":"AZ"}
{"address":"9360 Bathurst Street","attributes":{"Alcohol":"none","BikeParking":true,"BusinessParking":{"garage":false,"lot":false,"street":false,"valet":false,"validated":false},"GoodForKids":true,"GoodForMeal":{"breakfast":false,"brunch":false,"dessert":false,"dinner":false,"latenight":false,"lunch":false},"RestaurantsAttire":"casual","RestaurantsDelivery":false,"RestaurantsGoodForGroups":true,"RestaurantsPriceRange2":1,"RestaurantsReservations":false,"RestaurantsTakeOut":true},"business_id":"SRg6VOJLidr8Pw-ImaalQg","categories":["Juice Bars & Smoothies","Food","Vegetarian","Restaurants"],"city":"Vaughan","hours":{"Friday":"10:00-20:00","Monday":"10:00-20:00","Saturday":"11:00-21:00","Sunday":"11:00-18:00","Thursday":"10:00-20:00","Tuesday":"10:00-20:00","Wednesday":"10:00-20:00"},"is_open":1,"latitude":43.8496238,"longitude":-79.4603008,"name":"Freshii Rutherford Marketplace","neighborhood":"","postal_code":"L6A 1S2","review_count":13,"stars":4.0,"state":"ON"}
{"address":"4145 Erie St","attributes":{"BusinessAcceptsCreditCards":true,"RestaurantsDelivery":false,"RestaurantsTakeOut":true,"WheelchairAccessible":false},"business_id":"-K4gAv8_vjx8-2BxkVeRkA","categories":["Bakeries","Food"],"city":"Willoughby","hours":{"Friday":"11:00-17:00","Saturday":"10:00-17:00","Thursday":"11:00-20:00","Tuesday":"11:00-17:00","Wednesday":"11:00-17:00"},"is_open":1,"latitude":41.6398599,"longitude":-81.406417,"name":"Baby Cakes","neighborhood":"","postal_code":"44094","review_count":5,"stars":3.5,"state":"OH"}
{"address":"11426 N Cave Creek Rd","attributes":{"BikeParking":true,"BusinessAcceptsCreditCards":true,"BusinessParking":{"garage":true,"lot":false,"street":false,"valet":false,"validated":false},"ByAppointmentOnly":true,"RestaurantsPriceRange2":2,"WheelchairAccessible":false},"business_id":"SvZLDxSmvjmyVJ1aWE7YyA","categories":["Beauty & Spas","Tattoo"],"city":"Phoenix","hours":{"Friday":"12:00-22:00","Monday":"12:00-22:00","Saturday":"10:00-22:00","Sunday":"10:00-22:00","Thursday":"12:00-22:00","Tuesday":"12:00-22:00","Wednesday":"12:00-22:00"},"is_open":1,"latitude":33.590177,"longitude":-112.045843,"name":"Studio 2.0 Ink","neighborhood":"","postal_code":"85020","review_count":6,"stars":3.5,"state":"AZ"}
{"address":"8 Stephen's Brae","attributes":{"Alcohol":"full_bar","Ambience":{"casual":false,"classy":false,"hipster":false,"intimate":false,"romantic":false,"touristy":false,"trendy":false,"upscale":false},"BikeParking":true,"BusinessAcceptsCreditCards":true,"GoodForKids":true,"GoodForMeal":{"breakfast":false,"brunch":false,"dessert":false,"dinner":false,"latenight":false,"lunch":false},"HasTV":false,"NoiseLevel":"quiet","OutdoorSeating":false,"RestaurantsAttire":"casual","RestaurantsDelivery":false,"RestaurantsGoodForGroups":true,"RestaurantsPriceRange2":1,"RestaurantsReservations":true,"RestaurantsTableService":true,"RestaurantsTakeOut":true,"WiFi":"no"},"business_id":"I891YJPgiL7lENaEz8sdqw","categories":["Restaurants","Italian","Food"],"city":"Inverness","hours":{"Friday":"9:30-21:00","Monday":"9:30-21:00","Saturday":"9:30-21:00","Thursday":"9:30-21:00","Tuesday":"9:30-21:00","Wednesday":"9:30-21:00"},"is_open":1,"latitude":57.4784645972,"longitude":-4.2207615797,"name":"Little Italy","neighborhood":"","postal_code":"IV2 3JN","review_count":8,"stars":4.5,"state":"HLD"}
{"address":"822 Wilson Avenue","attributes":{"Ambience":{"casual":false,"classy":false,"hipster":false,"intimate":false,"romantic":false,"touristy":false,"trendy":false,"upscale":false},"BikeParking":true,"BusinessAcceptsCreditCards":true,"BusinessParking":{"garage":false,"lot":false,"street":false,"valet":false,"validated":false},"Caters":true,"GoodForKids":true,"GoodForMeal":{"breakfast":false,"brunch":false,"dessert":false,"dinner":false,"latenight":false,"lunch":false},"HasTV":true,"NoiseLevel":"average","OutdoorSeating":false,"RestaurantsAttire":"casual","RestaurantsDelivery":true,"RestaurantsGoodForGroups":true,"RestaurantsPriceRange2":1,"RestaurantsTableService":true,"RestaurantsTakeOut":true,"WiFi":"no"},"business_id":"KTai0Sc45p4A-j2RYoDnHQ","categories":["Restaurants","Pizza"],"city":"North York","hours":{},"is_open":1,"latitude":43.7307172,"longitude":-79.4665547,"name":"Buzz Buzz Pizza","neighborhood":"","postal_code":"M3K 1E5","review_count":15,"stars":4.0,"state":"ON"}
{"address":"6185 Harrison Dr","attributes":{"BikeParking":false,"BusinessAcceptsCreditCards":true,"BusinessParking":{"garage":false,"lot":false,"street":false,"valet":false,"validated":false},"RestaurantsPriceRange2":4},"business_id":"_H2WDe7geFWVqUyWxMfQ3w","categories":["Photography Stores & Services","Shopping"],"city":"Las Vegas","hours":{},"is_open":1,"latitude":36.0773084,"longitude":-115.1132848,"name":"Prestige Portraits","neighborhood":"Southeast","postal_code":"89102","review_count":14,"stars":1.0,"state":"NV"}
{"address":"2979 W Fairmount Ave","attributes":{"BusinessAcceptsCreditCards":true},"business_id":"KRFlBY5XDVhDmMlv-Gg-5A","categories":["Local Services","Pest Control"],"city":"Phoenix","hours":{"Friday":"9:00-16:00","Monday":"9:00-16:00","Thursday":"9:00-16:00","Tuesday":"9:00-16:00","Wednesday":"9:00-16:00"},"is_open":1,"latitude":33.4934834,"longitude":-112.1234956,"name":"Armor Pest Defense","neighborhood":"","postal_code":"85017","review_count":20,"stars":2.0,"state":"AZ"}
{"address":"2609 W Bethany Home Rd","attributes":{"BikeParking":true,"BusinessAcceptsBitcoin":false,"BusinessAcceptsCreditCards":true,"BusinessParking":{"garage":false,"lot":true,"street":false,"valet":false,"validated":false},"DogsAllowed":false,"RestaurantsPriceRange2":1},"business_id":"vqcZ3XyAJix1xYjG_vXBzg","categories":["Tobacco Shops","Vape Shops","Shopping"],"city":"Phoenix","hours":{"Friday":"10:00-20:00","Monday":"10:00-20:00","Saturday":"10:00-20:00","Sunday":"12:00-17:00","Thursday":"10:00-20:00","Tuesday":"10:00-20:00","Wednesday":"10:00-20:00"},"is_open":1,"latitude":33.5237247464,"longitude":-112.114515009,"name":"Juicy Vapes","neighborhood":"","postal_code":"85017","review_count":10,"stars":5.0,"state":"AZ"}
{"address":"7 Victoria Street","attributes":{"Alcohol":"full_bar","Ambience":{"casual":false,"classy":false,"hipster":false,"intimate":false,"romantic":false,"touristy":false,"trendy":false,"upscale":false},"BikeParking":false,"BusinessAcceptsCreditCards":true,"BusinessParking":{"garage":false,"lot":false,"street":true,"valet":false},"GoodForKids":true,"GoodForMeal":{"breakfast":false,"brunch":false,"dessert":false,"dinner":false,"latenight":false,"lunch":false},"HasTV":false,"OutdoorSeating":false,"RestaurantsAttire":"casual","RestaurantsDelivery":false,"RestaurantsGoodForGroups":true,"RestaurantsPriceRange2":2,"RestaurantsReservations":true,"RestaurantsTableService":true,"RestaurantsTakeOut":false,"WheelchairAccessible":true},"business_id":"sIZm6SbTVueFfswzo-a0hg","categories":["Tex-Mex","Mexican","Restaurants"],"city":"Edinburgh","hours":{"Friday":"12:00-23:00","Monday":"12:00-23:00","Saturday":"12:00-23:00","Sunday":"14:00-22:00","Thursday":"12:00-23:00","Tuesday":"12:00-23:00","Wednesday":"12:00-23:00"},"is_open":1,"latitude":55.9488404,"longitude":-3.1936155,"name":"Mariachi","neighborhood":"Old Town","postal_code":"EH1 2HE","review_count":29,"stars":3.5,"state":"EDH"}
{"address":"5115 Spring Mountain Rd, Ste113","attributes":{"BikeParking":false,"BusinessAcceptsCreditCards":false,"BusinessParking":{"garage":true,"lot":false,"street":true,"valet":false,"validated":false},"ByAppointmentOnly":false,"GoodForKids":true,"HairSpecializesIn":{"africanamerican":false,"asian":true,"coloring":true,"curly":true,"extensions":false,"kids":false,"perms":true,"straightperms":false},"RestaurantsPriceRange2":2,"WheelchairAccessible":true},"business_id":"81sJG9LJ9ahscSNBUYYUGw","categories":["Hair Salons","Beauty & Spas"],"city":"Las Vegas","hours":{"Friday":"10:00-19:00","Monday":"10:00-19:00","Saturday":"10:00-19:00","Thursday":"10:00-19:00","Tuesday":"10:00-19:00","Wednesday":"10:00-19:00"},"is_open":1,"latitude":36.1255374,"longitude":-115.2112409,"name":"New P2K salon","neighborhood":"Chinatown","postal_code":"89146","review_count":7,"stars":2.0,"state":"NV"}
{"address":"Wilhelmsplatz 6","attributes":{"Alcohol":"full_bar","Ambience":{"casual":true,"classy":false,"hipster":false,"intimate":false,"romantic":false,"touristy":false,"trendy":false,"upscale":false},"BikeParking":true,"BusinessAcceptsCreditCards":true,"BusinessParking":{"garage":false,"lot":false,"street":true,"valet":false,"validated":false},"CoatCheck":false,"DogsAllowed":false,"GoodForDancing":false,"GoodForKids":true,"GoodForMeal":{"breakfast":false,"brunch":false,"dessert":false,"dinner":true,"latenight":false,"lunch":false},"HappyHour":false,"HasTV":false,"Music":{"background_music":false,"dj":false,"jukebox":false,"karaoke":false,"live":false,"no_music":false,"video":false},"NoiseLevel":"average","OutdoorSeating":true,"RestaurantsAttire":"casual","RestaurantsDelivery":false,"RestaurantsGoodForGroups":true,"RestaurantsPriceRange2":3,"RestaurantsReservations":true,"RestaurantsTableService":true,"RestaurantsTakeOut":false,"Smoking":"yes","WheelchairAccessible":false,"WiFi":"no"},"business_id":"WogsxjRhg-HptXIPGkWMfw","categories":["Beer","Wine & Spirits","Food","Swabian","Bars","Wine Bars","Restaurants","Nightlife"],"city":"Stuttgart","hours":{"Friday":"17:30-0:00","Monday":"17:30-0:00","Saturday":"17:00-0:00","Sunday":"17:30-23:00","Thursday":"17:30-0:00","Tuesday":"11:30-14:30","Wednesday":"17:30-0:00"},"is_open":1,"latitude":48.77149,"longitude":9.17919,"name":"Murrhardter Hof Burhan","neighborhood":"","postal_code":"70182","review_count":48,"stars":4.0,"state":"BW"}
{"address":"212 King Street W","attributes":{"Alcohol":"full_bar","Ambience":{"casual":true,"classy":false,"hipster":false,"intimate":false,"romantic":false,"touristy":false,"trendy":false,"upscale":false},"BikeParking":true,"BusinessAcceptsCreditCards":true,"BusinessParking":{"garage":false,"lot":false,"street":true,"valet":false,"validated":false},"Caters":true,"GoodForKids":false,"GoodForMeal":{"breakfast":false,"brunch":false,"dessert":false,"dinner":true,"latenight":false,"lunch":false},"HasTV":true,"NoiseLevel":"average","OutdoorSeating":true,"RestaurantsAttire":"casual","RestaurantsDelivery":false,"RestaurantsGoodForGroups":true,"RestaurantsPriceRange2":2,"RestaurantsReservations":true,"RestaurantsTableService":true,"RestaurantsTakeOut":true,"WheelchairAccessible":false,"WiFi":"no"},"business_id":"kLw_FmSiEqYH-MtFhDIUFQ","categories":["Cajun/Creole","Restaurants","Seafood"],"city":"Toronto","hours":{"Friday":"11:30-1:00","Monday":"11:30-23:00","Saturday":"11:30-1:00","Sunday":"11:30-23:00","Thursday":"11:30-1:00","Tuesday":"11:30-1:00","Wednesday":"11:30-1:00"},"is_open":0,"latitude":43.647499,"longitude":-79.3864714,"name":"Big Daddy's Bourbon Street Bistro & Oyster Bar","neighborhood":"Entertainment District","postal_code":"M5H 1K5","review_count":132,"stars":3.5,"state":"ON"}
{"address":"1509 Hickory Grove Rd","attributes":{"BusinessAcceptsCreditCards":true},"business_id":"0-aPEeNc2zVb5Gp-i7Ckqg","categories":["Automotive","Auto Repair"],"city":"Gastonia","hours":{"Friday":"8:30-17:00","Monday":"8:30-17:00","Saturday":"9:00-15:00","Thursday":"8:30-17:00","Tuesday":"8:30-17:00","Wednesday":"8:30-17:00"},"is_open":1,"latitude":35.277164,"longitude":-81.06003,"name":"Buddy's Muffler & Exhaust","neighborhood":"","postal_code":"28056","review_count":4,"stars":5.0,"state":"NC"}
{"address":"5869 S Kyrene Rd, Ste 3","attributes":{"BusinessAcceptsCreditCards":true},"business_id":"d3RFfYs1T1MHgG6nqKmaJg","categories":["Powder Coating","Automotive","Local Services","Body Shops","Auto Repair","Auto Customization"],"city":"Tempe","hours":{"Friday":"9:00-17:00","Monday":"9:00-17:00","Thursday":"9:00-17:00","Tuesday":"9:00-17:00","Wednesday":"9:00-17:00"},"is_open":1,"latitude":33.369527,"longitude":-111.9450514,"name":"AZ CUSTOM COATINGS","neighborhood":"","postal_code":"85283","review_count":3,"stars":3.5,"state":"AZ"}
{"address":"10974 Perry Hwy","attributes":{"BusinessAcceptsCreditCards":true,"BusinessParking":{"garage":false,"lot":true,"street":false,"valet":false,"validated":false},"RestaurantsPriceRange2":3,"WheelchairAccessible":true},"business_id":"71YhxOJlTEch0q5gmjKfHw","categories":["Food","Beer","Wine & Spirits"],"city":"Wexford","hours":{"Friday":"12:00-21:00","Monday":"12:00-20:00","Saturday":"12:00-21:00","Sunday":"12:00-17:00","Thursday":"12:00-23:00","Tuesday":"12:00-20:00","Wednesday":"12:00-23:00"},"is_open":0,"latitude":40.6177305,"longitude":-80.0556072,"name":"1 For the Road","neighborhood":"","postal_code":"15090","review_count":5,"stars":4.0,"state":"PA"}
{"address":"810 Ingomar Rd","attributes":{"Alcohol":"none","Ambience":{"casual":false,"classy":false,"divey":false,"hipster":false,"intimate":false,"romantic":false,"touristy":false,"trendy":false,"upscale":false},"BikeParking":true,"BusinessAcceptsCreditCards":false,"BusinessParking":{"garage":false,"lot":false,"street":false,"valet":false,"validated":false},"Caters":false,"GoodForKids":true,"GoodForMeal":{"breakfast":false,"brunch":false,"dessert":false,"dinner":false,"latenight":false,"lunch":false},"HasTV":true,"NoiseLevel":"average","OutdoorSeating":false,"RestaurantsAttire":"casual","RestaurantsDelivery":false,"RestaurantsGoodForGroups":false,"RestaurantsPriceRange2":2,"RestaurantsReservations":false,"RestaurantsTableService":true,"RestaurantsTakeOut":true,"WiFi":"no"},"business_id":"uYYXLcDNQhgUIQcfauaKrw","categories":["Sandwiches","Restaurants"],"city":"Wexford","hours":{},"is_open":1,"latitude":40.5896807,"longitude":-80.0182093,"name":"Chub's Place","neighborhood":"","postal_code":"15090","review_count":12,"stars":3.0,"state":"PA"}
{"address":"2920 N Green Valley Pkwy, Bldg 2, Ste 218","attributes":{"BusinessAcceptsBitcoin":false,"BusinessAcceptsCreditCards":false,"ByAppointmentOnly":true},"business_id":"fo3PlEufPJ5rSocxmFhJNg","categories":["Property Management","Home Services","Real Estate"],"city":"Henderson","hours":{"Friday":"9:00-17:00","Monday":"9:00-17:00","Thursday":"9:00-17:00","Tuesday":"9:00-17:00","Wednesday":"9:00-17:00"},"is_open":1,"latitude":36.0756924,"longitude":-115.0812919,"name":"Centurion Management Services","neighborhood":"","postal_code":"89014","review_count":25,"stars":2.0,"state":"NV"}
{"address":"4848 N 43rd Ave","attributes":{"BikeParking":true,"BusinessAcceptsCreditCards":true,"BusinessParking":{"garage":false,"lot":true,"street":false,"valet":false,"validated":false},"RestaurantsPriceRange2":2},"business_id":"CpYoXlf-VXw_XAnQ8TvZlw","categories":["Hardware Stores","Home & Garden","Shopping","Nurseries & Gardening","Appliances"],"city":"Phoenix","hours":{"Friday":"6:00-22:00","Monday":"6:00-22:00","Saturday":"6:00-22:00","Sunday":"7:00-20:00","Thursday":"6:00-22:00","Tuesday":"6:00-22:00","Wednesday":"6:00-22:00"},"is_open":1,"latitude":33.5073131523,"longitude":-112.153029442,"name":"The Home Depot","neighborhood":"","postal_code":"85031","review_count":20,"stars":2.5,"state":"AZ"}
{"address":"Sandalwood Mall, 30 Bristol Road E, Unit 3","attributes":{"Alcohol":"full_bar","Ambience":{"casual":true,"classy":false,"hipster":false,"intimate":false,"romantic":false,"touristy":false,"trendy":false,"upscale":false},"BikeParking":true,"BusinessAcceptsCreditCards":true,"BusinessParking":{"garage":false,"lot":true,"street":false,"valet":false,"validated":false},"Caters":true,"GoodForKids":true,"GoodForMeal":{"breakfast":false,"brunch":false,"dessert":false,"dinner":true,"latenight":false,"lunch":true},"HasTV":false,"NoiseLevel":"average","OutdoorSeating":false,"RestaurantsAttire":"casual","RestaurantsDelivery":false,"RestaurantsGoodForGroups":true,"RestaurantsPriceRange2":2,"RestaurantsReservations":true,"RestaurantsTableService":true,"RestaurantsTakeOut":true,"WheelchairAccessible":true,"WiFi":"no"},"business_id":"KXl2k4LkrmnHRTTAY-TVDQ","categories":["Restaurants","Asian Fusion","Indian"],"city":"Mississauga","hours":{"Friday":"11:30-23:30","Monday":"11:30-22:30","Saturday":"12:00-23:30","Sunday":"12:00-22:30","Thursday":"11:30-22:30","Tuesday":"11:30-22:30","Wednesday":"11:30-22:30"},"is_open":1,"latitude":43.615601,"longitude":-79.660979,"name":"Bombay Chopsticks","neighborhood":"","postal_code":"L4Z 3K8","review_count":41,"stars":3.5,"state":"ON"}
{"address":"116 Fort York Blvd","attributes":{"BikeParking":true,"BusinessAcceptsCreditCards":true,"BusinessParking":{"garage":false,"lot":true,"street":true,"valet":false,"validated":false},"RestaurantsPriceRange2":2,"WheelchairAccessible":false},"business_id":"Z-CMW6gQNoxn23MrwuaZFw","categories":["Accessories","Bespoke Clothing","Men's Clothing","Formal Wear","Fashion","Shopping"],"city":"Toronto","hours":{"Friday":"12:00-19:00","Saturday":"12:00-17:00","Thursday":"12:00-19:00","Tuesday":"12:00-19:00","Wednesday":"12:00-19:00"},"is_open":1,"latitude":43.6396499,"longitude":-79.3979309,"name":"Empire Customs","neighborhood":"City Place","postal_code":"M5V 4A6","review_count":4,"stars":3.0,"state":"ON"}
{"address":"1669 Saint Clair Avenue W","attributes":{"HasTV":true,"RestaurantsPriceRange2":1,"RestaurantsTableService":false,"RestaurantsTakeOut":true},"business_id":"Er8lBoKdYofhheu0Di93fw","categories":["Restaurants","Canadian (New)"],"city":"Toronto","hours":{},"is_open":1,"latitude":43.6744092,"longitude":-79.4580342,"name":"MainSha Restaurant","neighborhood":"","postal_code":"M6N 1H9","review_count":5,"stars":4.0,"state":"ON"}
{"address":"3801 Regent St","attributes":{"BusinessAcceptsCreditCards":false},"business_id":"QF2PiWKycO2ZAb5FidqtlQ","categories":["Apartments","Real Estate","Home Services"],"city":"Madison","hours":{"Friday":"8:00-20:00","Monday":"8:00-20:00","Saturday":"8:00-20:00","Sunday":"8:00-20:00","Thursday":"8:00-20:00","Tuesday":"8:00-20:00","Wednesday":"8:00-20:00"},"is_open":1,"latitude":43.0675623,"longitude":-89.4393783,"name":"Ripple Management","neighborhood":"Radio Park","postal_code":"53705","review_count":3,"stars":2.0,"state":"WI"}
{"address":"1901 W Granada Rd","attributes":{"BusinessAcceptsCreditCards":true},"business_id":"fm6egIdG0mvZuZS2zlDNhQ","categories":["Automotive","Auto Repair"],"city":"Phoenix","hours":{},"is_open":1,"latitude":33.4682066,"longitude":-112.1001461,"name":"Affordable Auto Repair","neighborhood":"","postal_code":"85009","review_count":5,"stars":5.0,"state":"AZ"}
{"address":"13128 N 94th Dr, Ste 100","attributes":{"AcceptsInsurance":true,"BusinessAcceptsCreditCards":true,"ByAppointmentOnly":true},"business_id":"36fT4dcKGI2JsqI6K6OSyw","categories":["Health & Medical","Cardiologists","Doctors"],"city":"Peoria","hours":{"Friday":"8:00-16:30","Monday":"8:00-16:30","Thursday":"8:00-16:30","Tuesday":"8:00-16:30","Wednesday":"8:00-16:30"},"is_open":1,"latitude":33.60334,"longitude":-112.263302,"name":"Cardiac Solutions","neighborhood":"","postal_code":"85381","review_count":9,"stars":3.0,"state":"AZ"}
{"address":"","attributes":{"BusinessAcceptsCreditCards":true,"ByAppointmentOnly":false},"business_id":"sxRQAsFrFU85BJShRorC-w","categories":["Keys & Locksmiths","Home Services","Security Systems"],"city":"Phoenix","hours":{"Friday":"0:00-0:00","Monday":"0:00-0:00","Saturday":"0:00-0:00","Sunday":"0:00-0:00","Thursday":"0:00-0:00","Tuesday":"0:00-0:00","Wednesday":"0:00-0:00"},"is_open":1,"latitude":33.4660406,"longitude":-112.0118669,"name":"AZ's Best Locksmith","neighborhood":"","postal_code":"85008","review_count":5,"stars":4.5,"state":"AZ"}
{"address":"5040 E Shea Blvd, Ste 272","attributes":{"AcceptsInsurance":false,"BusinessAcceptsCreditCards":true,"ByAppointmentOnly":true},"business_id":"zBNlxw12UCQvR067HnSZDQ","categories":["Life Coach","Professional Services","Massage Therapy","Reflexology","Health & Medical"],"city":"Phoenix","hours":{"Friday":"9:00-21:00","Monday":"9:00-21:00","Saturday":"9:00-21:00","Sunday":"8:00-21:00","Thursday":"9:00-21:00","Tuesday":"9:00-21:00","Wednesday":"9:00-21:00"},"is_open":1,"latitude":33.5831622,"longitude":-111.9721974,"name":"Twisted Tree Health","neighborhood":"","postal_code":"85028","review_count":25,"stars":4.5,"state":"AZ"}
{"address":"","attributes":{"ByAppointmentOnly":true},"business_id":"feVbzLOql6yzxicCAuPAUg","categories":["Health & Medical","Nutritionists","Acupuncture"],"city":"Phoenix","hours":{"Friday":"9:00-17:00","Monday":"9:00-17:00","Thursday":"9:00-17:00","Tuesday":"9:00-17:00","Wednesday":"9:00-17:00"},"is_open":1,"latitude":33.4636012,"longitude":-112.0535987,"name":"Joseph Garner, L.Ac","neighborhood":"","postal_code":"85006","review_count":3,"stars":5.0,"state":"AZ"}
{"address":"1887 Scott Futrell Dr","attributes":{"BikeParking":true,"BusinessAcceptsCreditCards":true,"BusinessParking":{"garage":false,"lot":false,"street":false,"valet":false,"validated":false},"ByAppointmentOnly":false,"RestaurantsPriceRange2":2,"WheelchairAccessible":true},"business_id":"7emvi57F8xWCDDADWSUKLg","categories":["Home Services","Shopping","Furniture Stores","Home & Garden","Arts & Entertainment","Lighting Fixtures & Equipment","Interior Design","Art Galleries","Home Decor"],"city":"Charlotte","hours":{"Friday":"10:30-19:00","Monday":"10:30-19:00","Saturday":"10:30-19:00","Sunday":"12:00-17:00","Thursday":"10:30-19:00","Tuesday":"10:30-19:00","Wednesday":"10:30-19:00"},"is_open":1,"latitude":35.241096,"longitude":-80.901352,"name":"Modern Furniture Studio","neighborhood":"","postal_code":"28208","review_count":8,"stars":5.0,"state":"NC"}
{"address":"3377 S Las Vegas Blvd","attributes":{"BusinessAcceptsCreditCards":true,"RestaurantsPriceRange2":3},"business_id":"e-H6-qd340BwYTnlntYyJg","categories":["Home Decor","Jewelry","Home & Garden","Shopping"],"city":"Las Vegas","hours":{"Friday":"9:00-23:00","Monday":"9:00-23:00","Saturday":"9:00-0:00","Sunday":"9:00-0:00","Thursday":"9:00-23:00","Tuesday":"9:00-23:00","Wednesday":"9:00-23:00"},"is_open":1,"latitude":36.1257805,"longitude":-115.1837942,"name":"Karma and Luck at the Grand Canal Shoppes","neighborhood":"Chinatown","postal_code":"89109","review_count":8,"stars":3.0,"state":"NV"}
{"address":"3405 Glen Erin Drive","attributes":{"GoodForKids":true,"RestaurantsGoodForGroups":true,"RestaurantsPriceRange2":2,"RestaurantsReservations":false,"RestaurantsTakeOut":true},"business_id":"y9cMrm4_ZSsbH00NATButQ","categories":["Caterers","Chicken Wings","Restaurants","Event Planning & Services"],"city":"Mississauga","hours":{},"is_open":1,"latitude":43.5365482,"longitude":-79.6851202,"name":"Chickenland","neighborhood":"Erin Mills","postal_code":"L5L 3S2","review_count":5,"stars":4.5,"state":"ON"}
{"address":"3370 St Rose Pkwy","attributes":{"BusinessAcceptsCreditCards":true,"ByAppointmentOnly":false},"business_id":"Ek4ZVbzF6vJkgqfK-576wA","categories":["Real Estate","Home Services","Property Management","Apartments"],"city":"Henderson","hours":{"Friday":"9:00-19:00","Monday":"9:00-19:00","Saturday":"10:00-17:00","Sunday":"13:00-17:00","Thursday":"9:00-19:00","Tuesday":"9:00-19:00","Wednesday":"10:00-19:00"},"is_open":1,"latitude":35.9940710136,"longitude":-115.135216713,"name":"Veritas","neighborhood":"Southeast","postal_code":"89052","review_count":36,"stars":4.0,"state":"NV"}
{"address":"960 S Park St","attributes":{"BusinessAcceptsCreditCards":true},"business_id":"cg-lsWvYnay7vIoob5Rq6w","categories":["Auto Repair","Automotive"],"city":"Madison","hours":{},"is_open":1,"latitude":43.0568524,"longitude":-89.3992507,"name":"Mex Mufflers & Brakes","neighborhood":"Bay Creek","postal_code":"53715","review_count":18,"stars":4.5,"state":"WI"}
{"address":"9209 Mentor Ave","attributes":{"Ambience":{"casual":false,"classy":false,"divey":false,"hipster":false,"intimate":false,"romantic":false,"touristy":false,"trendy":false,"upscale":false},"BikeParking":false,"BusinessAcceptsCreditCards":true,"DriveThru":false,"GoodForKids":true,"GoodForMeal":{"breakfast":false,"brunch":false,"dessert":false,"dinner":false,"latenight":false,"lunch":false},"HasTV":true,"OutdoorSeating":false,"RestaurantsAttire":"casual","RestaurantsDelivery":false,"RestaurantsGoodForGroups":true,"RestaurantsPriceRange2":2,"RestaurantsReservations":false,"RestaurantsTakeOut":true,"WiFi":"free"},"business_id":"lXcxSdPa2m__LqhsaL9t9A","categories":["Restaurants","Sandwiches","Delis","Fast Food"],"city":"Mentor","hours":{"Friday":"10:30-21:00","Monday":"10:30-21:00","Saturday":"10:30-21:00","Sunday":"10:30-21:00","Thursday":"10:30-21:00","Tuesday":"10:30-21:00","Wednesday":"10:30-21:00"},"is_open":1,"latitude":41.6764311,"longitude":-81.3117527,"name":"Firehouse Subs","neighborhood":"","postal_code":"44060","review_count":9,"stars":3.5,"state":"OH"}
{"address":"9203 Mentor Ave","attributes":{"AcceptsInsurance":true},"business_id":"D1N1UAK-oWFy62NDclUf4Q","categories":["Oral Surgeons","Health & Medical","Cosmetic Dentists","Dentists"],"city":"Mentor","hours":{},"is_open":1,"latitude":41.6764113,"longitude":-81.3118514,"name":"Grbach Bruce D DDS","neighborhood":"","postal_code":"44060","review_count":3,"stars":4.0,"state":"OH"}
{"address":"16815 Cranlyn Rd, Ste A","attributes":{"BikeParking":true,"BusinessAcceptsCreditCards":true,"BusinessParking":{"garage":true,"lot":false,"street":true,"valet":false,"validated":false},"ByAppointmentOnly":false,"DogsAllowed":true,"GoodForKids":false,"WheelchairAccessible":true},"business_id":"uokO-QRhipSBipIxWDRlTQ","categories":["Fashion","Women's Clothing","Shopping","Barre Classes","Active Life","Fitness & Instruction"],"city":"Huntersville","hours":{"Friday":"5:30-17:30","Monday":"5:30-20:00","Saturday":"7:30-15:00","Sunday":"7:30-17:00","Thursday":"5:30-20:00","Tuesday":"5:30-20:00","Wednesday":"5:30-20:00"},"is_open":1,"latitude":35.4467887,"longitude":-80.8786387,"name":"Pure Barre - Lake Norman Birkdale","neighborhood":"","postal_code":"28078","review_count":7,"stars":5.0,"state":"NC"}
{"address":"6573 Somerled","attributes":{"Alcohol":"none","Ambience":{"casual":false,"classy":false,"hipster":false,"intimate":false,"romantic":false,"touristy":false,"trendy":false,"upscale":false},"BikeParking":true,"BusinessAcceptsCreditCards":true,"BusinessParking":{"garage":false,"lot":false,"street":false,"valet":false,"validated":false},"Caters":true,"GoodForKids":true,"GoodForMeal":{"breakfast":false,"brunch":false,"dessert":false,"dinner":false,"latenight":false,"lunch":false},"HasTV":true,"NoiseLevel":"quiet","OutdoorSeating":false,"RestaurantsAttire":"casual","RestaurantsDelivery":true,"RestaurantsGoodForGroups":true,"RestaurantsPriceRange2":2,"RestaurantsReservations":true,"RestaurantsTableService":true,"RestaurantsTakeOut":true,"WiFi":"no"},"business_id":"8Rdz0VPY8CuT2GQZ7ho2sw","categories":["Restaurants","Japanese","Sushi Bars"],"city":"Montréal","hours":{"Friday":"11:00-22:00","Monday":"11:00-21:00","Saturday":"12:00-22:00","Sunday":"16:00-21:00","Thursday":"11:00-21:00","Tuesday":"11:00-21:00","Wednesday":"11:00-21:00"},"is_open":1,"latitude":45.4670935,"longitude":-73.638895,"name":"Sushi Hoshimi","neighborhood":"Notre-Dame-de-Grâce","postal_code":"H4V 1S9","review_count":11,"stars":4.5,"state":"QC"}
{"address":"3462 Avenue du Parc","attributes":{"Alcohol":"none","Ambience":{"casual":true,"classy":false,"hipster":false,"intimate":false,"romantic":false,"touristy":false,"trendy":false,"upscale":false},"BikeParking":true,"BusinessAcceptsCreditCards":true,"BusinessParking":{"garage":false,"lot":false,"street":true,"valet":false,"validated":false},"Caters":false,"GoodForKids":true,"GoodForMeal":{"breakfast":false,"brunch":false,"dessert":false,"dinner":false,"latenight":true,"lunch":false},"HasTV":true,"NoiseLevel":"average","OutdoorSeating":false,"RestaurantsAttire":"casual","RestaurantsDelivery":true,"RestaurantsGoodForGroups":true,"RestaurantsPriceRange2":2,"RestaurantsReservations":false,"RestaurantsTableService":true,"RestaurantsTakeOut":true,"WheelchairAccessible":false,"WiFi":"no"},"business_id":"DAMTCTsSeACXbkSABkhZqQ","categories":["Pizza","Sandwiches","Restaurants"],"city":"Montréal","hours":{"Friday":"11:00-5:00","Monday":"11:00-4:00","Saturday":"11:00-5:00","Sunday":"11:00-4:00","Thursday":"11:00-4:00","Tuesday":"11:00-4:00","Wednesday":"11:00-4:00"},"is_open":0,"latitude":45.5090463,"longitude":-73.5729484,"name":"Alto Restaurant","neighborhood":"Plateau-Mont-Royal","postal_code":"H2X 2H5","review_count":51,"stars":3.5,"state":"QC"}
{"address":"13181 Cedar Rd","attributes":{"Alcohol":"none","Ambience":{"casual":true,"classy":false,"divey":false,"hipster":false,"intimate":false,"romantic":false,"touristy":false,"trendy":false,"upscale":false},"BikeParking":true,"BusinessAcceptsCreditCards":false,"BusinessParking":{"garage":false,"lot":true,"street":false,"valet":false,"validated":false},"Caters":false,"GoodForKids":true,"GoodForMeal":{"breakfast":false,"brunch":false,"dessert":false,"dinner":true,"latenight":false,"lunch":false},"HasTV":true,"NoiseLevel":"average","OutdoorSeating":false,"RestaurantsAttire":"casual","RestaurantsDelivery":false,"RestaurantsGoodForGroups":true,"RestaurantsPriceRange2":1,"RestaurantsReservations":false,"RestaurantsTableService":true,"RestaurantsTakeOut":true,"WiFi":"no"},"business_id":"Pawavw9U8rjxWVPU-RB7LA","categories":["Chinese","Restaurants"],"city":"Cleveland","hours":{"Friday":"11:30-22:00","Monday":"11:30-21:30","Saturday":"12:00-22:00","Sunday":"16:00-21:00","Thursday":"11:30-21:30","Tuesday":"11:30-21:30","Wednesday":"11:30-21:30"},"is_open":1,"latitude":41.5014129,"longitude":-81.5659822,"name":"Richie Chan's Chinese Restaurant","neighborhood":"","postal_code":"44118","review_count":22,"stars":3.5,"state":"OH"}
{"address":"9165 South Jones Blvd","attributes":{},"business_id":"wCRMScBQJY8zES16j0Hn6Q","categories":["Private Investigation","Professional Services","Security Services"],"city":"Las Vegas","hours":{"Friday":"0:00-0:00","Monday":"0:00-0:00","Saturday":"0:00-0:00","Sunday":"0:00-0:00","Thursday":"0:00-0:00","Tuesday":"0:00-0:00","Wednesday":"0:00-0:00"},"is_open":1,"latitude":36.0232219,"longitude":-115.2261097,"name":"Unity One, Inc","neighborhood":"Southwest","postal_code":"89139","review_count":7,"stars":3.5,"state":"NV"}
{"address":"5084 Dundas Street W","attributes":{"RestaurantsGoodForGroups":true,"RestaurantsReservations":true,"RestaurantsTakeOut":true,"WiFi":"free"},"business_id":"0e-j5VcEn54EZT-FKCUZdw","categories":["Sushi Bars","Restaurants","Japanese","Korean"],"city":"Toronto","hours":{"Friday":"11:00-23:00","Monday":"11:00-23:00","Saturday":"11:00-23:00","Sunday":"14:00-23:00","Thursday":"11:00-23:00","Tuesday":"11:00-23:00","Wednesday":"11:00-23:00"},"is_open":1,"latitude":43.6452327,"longitude":-79.5324224,"name":"Sushi Osaka","neighborhood":"Etobicoke","postal_code":"M9A 1C2","review_count":8,"stars":4.5,"state":"ON"}
{"address":"4602 Sunset Rd, Unit A","attributes":{"BikeParking":true,"BusinessAcceptsCreditCards":true,"BusinessParking":{"garage":false,"lot":true,"street":false,"valet":false,"validated":false},"RestaurantsPriceRange2":1,"WiFi":"no"},"business_id":"Wc5uwZnd_U64B9-CQhjcRQ","categories":["Local Services","Sewing & Alterations","Dry Cleaning & Laundry","Shoe Repair","Laundry Services"],"city":"Henderson","hours":{},"is_open":1,"latitude":36.0723822,"longitude":-115.0728687,"name":"Thrift DLux","neighborhood":"","postal_code":"89014","review_count":22,"stars":4.0,"state":"NV"}
{"address":"9260 W Bell Rd","attributes":{"BusinessAcceptsCreditCards":true},"business_id":"n5Bu0WBhCiQ5umCE5EzSjg","categories":["Automotive","Auto Parts & Supplies","Car Dealers"],"city":"Peoria","hours":{"Friday":"9:00-19:00","Monday":"9:00-19:00","Saturday":"9:00-18:00","Sunday":"12:00-17:00","Thursday":"9:00-19:00","Tuesday":"9:00-19:00","Wednesday":"9:00-19:00"},"is_open":1,"latitude":33.6390552092,"longitude":-112.258500664,"name":"Mercedes-Benz of Arrowhead","neighborhood":"","postal_code":"85382","review_count":42,"stars":3.0,"state":"AZ"}
{"address":"518 Eglinton Avenue W","attributes":{"BikeParking":true,"BusinessAcceptsCreditCards":true,"BusinessParking":{"garage":false,"lot":false,"street":false,"valet":false,"validated":false},"OutdoorSeating":true,"RestaurantsPriceRange2":2,"RestaurantsTakeOut":true,"WiFi":"free"},"business_id":"zcWit_aSGR5wiunYB_Zapw","categories":["Juice Bars & Smoothies","Desserts","Coffee & Tea","Food"],"city":"Toronto","hours":{"Friday":"6:00-21:00","Monday":"6:00-21:00","Saturday":"9:00-19:00","Sunday":"11:00-18:00","Thursday":"6:00-21:00","Tuesday":"6:00-21:00","Wednesday":"6:00-21:00"},"is_open":1,"latitude":43.7036411,"longitude":-79.4136884,"name":"Second Cup","neighborhood":"","postal_code":"M5N 1A5","review_count":7,"stars":4.0,"state":"ON"}
{"address":"4341 E Baseline Rd","attributes":{"Alcohol":"full_bar","Ambience":{"casual":true,"classy":false,"divey":false,"hipster":false,"intimate":false,"romantic":false,"touristy":false,"trendy":false,"upscale":false},"BikeParking":true,"BusinessAcceptsCreditCards":true,"BusinessParking":{"garage":false,"lot":true,"street":false,"valet":false,"validated":false},"Caters":true,"GoodForKids":true,"GoodForMeal":{"breakfast":true,"brunch":false,"dessert":false,"dinner":true,"latenight":false,"lunch":true},"HasTV":true,"NoiseLevel":"average","OutdoorSeating":true,"RestaurantsAttire":"casual","RestaurantsDelivery":false,"RestaurantsGoodForGroups":true,"RestaurantsPriceRange2":2,"RestaurantsReservations":false,"RestaurantsTableService":true,"RestaurantsTakeOut":true,"WiFi":"no"},"business_id":"aP2Ma-Wx2lydppntCGhNSg","categories":["Mexican","Restaurants","Barbeque"],"city":"Gilbert","hours":{"Friday":"7:00-21:30","Monday":"8:00-21:00","Saturday":"7:00-21:30","Sunday":"7:00-20:00","Thursday":"8:00-21:00","Tuesday":"8:00-21:00","Wednesday":"8:00-21:00"},"is_open":1,"latitude":33.3778537807,"longitude":-111.740792058,"name":"Gecko Grill","neighborhood":"","postal_code":"85234","review_count":201,"stars":3.5,"state":"AZ"}
{"address":"23 Bernard Street","attributes":{"Alcohol":"none","BusinessAcceptsCreditCards":true,"BusinessParking":{"garage":false,"lot":false,"street":false,"valet":false},"GoodForMeal":{"breakfast":false,"brunch":false,"dessert":false,"dinner":false,"latenight":false,"lunch":false},"HasTV":false,"OutdoorSeating":false,"RestaurantsAttire":"casual","RestaurantsGoodForGroups":false,"RestaurantsPriceRange2":2,"RestaurantsReservations":false,"WheelchairAccessible":false,"WiFi":"no"},"business_id":"rjGL3G1dBQfkrQJgitMCaw","categories":["Restaurants","Cafes"],"city":"Edinburgh","hours":{},"is_open":1,"latitude":55.9755134,"longitude":-3.1674969,"name":"The Globe Deli","neighborhood":"Leith","postal_code":"EH6 6PW","review_count":4,"stars":5.0,"state":"EDH"}
{"address":"3500 Meade Ave","attributes":{},"business_id":"XXcENxZvgy_DvuCVwC1vQQ","categories":["Masonry/Concrete","Building Supplies","Home Services"],"city":"Las Vegas","hours":{"Friday":"7:00-16:00","Monday":"7:00-16:00","Saturday":"7:00-12:00","Thursday":"7:00-16:00","Tuesday":"7:00-16:00","Wednesday":"7:00-16:00"},"is_open":1,"latitude":36.1367895,"longitude":-115.1874558,"name":"Concrete Accessories","neighborhood":"Westside","postal_code":"89102","review_count":6,"stars":5.0,"state":"NV"}
{"address":"134 E Aurora Rd","attributes":{"Alcohol":"none","Ambience":{"casual":false,"classy":false,"divey":false,"hipster":false,"intimate":false,"romantic":false,"touristy":false,"trendy":false,"upscale":false},"BikeParking":true,"BusinessAcceptsCreditCards":true,"BusinessParking":{"garage":false,"lot":false,"street":false,"valet":false,"validated":false},"Caters":false,"GoodForKids":true,"HasTV":false,"NoiseLevel":"quiet","OutdoorSeating":false,"RestaurantsAttire":"casual","RestaurantsDelivery":true,"RestaurantsGoodForGroups":false,"RestaurantsPriceRange2":2,"RestaurantsReservations":false,"RestaurantsTableService":false,"RestaurantsTakeOut":true,"WiFi":"no"},"business_id":"RzVHK8Jfcy8RvXjn_z3OBw","categories":["Restaurants","Pizza"],"city":"Northfield","hours":{"Friday":"10:00-23:00","Monday":"10:00-22:00","Saturday":"10:00-23:00","Sunday":"11:00-22:00","Thursday":"10:00-22:00","Tuesday":"10:00-22:00","Wednesday":"10:00-22:00"},"is_open":1,"latitude":41.313373,"longitude":-81.532933,"name":"Romeo's Pizza","neighborhood":"","postal_code":"44067","review_count":4,"stars":4.0,"state":"OH"}
{"address":"701 Rossland Road E","attributes":{"Ambience":{"casual":false,"classy":false,"hipster":false,"intimate":false,"romantic":false,"touristy":false,"trendy":false,"upscale":false},"BusinessAcceptsCreditCards":true,"BusinessParking":{"garage":false,"lot":false,"street":false,"valet":false,"validated":false},"DriveThru":false,"GoodForKids":true,"GoodForMeal":{"breakfast":false,"brunch":false,"dessert":false,"dinner":false,"latenight":false,"lunch":false},"NoiseLevel":"average","OutdoorSeating":false,"RestaurantsAttire":"casual","RestaurantsDelivery":true,"RestaurantsGoodForGroups":true,"RestaurantsPriceRange2":2,"RestaurantsReservations":false,"RestaurantsTableService":true,"RestaurantsTakeOut":true,"WheelchairAccessible":true},"business_id":"BCzZbgOjJFexYbGfSd6UZg","categories":["Burgers","Restaurants","Hot Dogs"],"city":"Whitby","hours":{},"is_open":1,"latitude":43.8996208,"longitude":-78.9384924,"name":"T & D Steak-Burger","neighborhood":"","postal_code":"L1N 8Y9","review_count":3,"stars":2.5,"state":"ON"}
{"address":"1215 Thomas Ave","attributes":{"BikeParking":true,"BusinessAcceptsCreditCards":true,"BusinessParking":{"garage":false,"lot":false,"street":true,"valet":false,"validated":false},"RestaurantsPriceRange2":2},"business_id":"s2S_vzdoFtYfsdsUZXRUbg","categories":["Home Decor","Home & Garden","Shopping"],"city":"Charlotte","hours":{},"is_open":1,"latitude":35.219381,"longitude":-80.8124689,"name":"House of Africa","neighborhood":"","postal_code":"28205","review_count":8,"stars":4.5,"state":"NC"}
{"address":"25401 Lorain Rd","attributes":{"BikeParking":true,"BusinessAcceptsCreditCards":true,"BusinessParking":{"garage":false,"lot":false,"street":false,"valet":false,"validated":false},"RestaurantsPriceRange2":3},"business_id":"8pYwfZNZc_6W1l_K6c-HfA","categories":["Ski & Snowboard Shops","Sporting Goods","Shopping"],"city":"North Olmsted","hours":{},"is_open":1,"latitude":41.4226031586,"longitude":-81.9034895368,"name":"Village Ski and Snowboard","neighborhood":"","postal_code":"44070","review_count":8,"stars":4.5,"state":"OH"}
{"address":"4690 Midway Mall","attributes":{},"business_id":"t0m7T6w08rz-xMWxEPYx4w","categories":["Shopping","Ophthalmologists","Optometrists","Eyewear & Opticians","Health & Medical","Doctors"],"city":"Elyria","hours":{"Friday":"10:00-20:00","Monday":"10:00-20:00","Saturday":"10:00-20:00","Sunday":"11:00-18:00","Thursday":"10:00-20:00","Tuesday":"10:00-20:00","Wednesday":"10:00-20:00"},"is_open":1,"latitude":41.396571,"longitude":-82.113412,"name":"LensCrafters","neighborhood":"","postal_code":"44035","review_count":3,"stars":2.5,"state":"OH"}
{"address":"10420 S Decatur Blvd, Ste 110","attributes":{"AcceptsInsurance":true,"BusinessAcceptsCreditCards":true,"ByAppointmentOnly":true},"business_id":"UXUMRPkaW22aNV5C7e4Uvw","categories":["Cosmetic Dentists","Health & Medical","Dentists","General Dentistry","Endodontists"],"city":"Las Vegas","hours":{"Friday":"8:00-17:00","Monday":"8:00-17:00","Thursday":"8:00-17:00","Tuesday":"8:00-17:00","Wednesday":"8:00-17:00"},"is_open":1,"latitude":36.0002611,"longitude":-115.2066524,"name":"Welch Dentistry","neighborhood":"Southwest","postal_code":"89141","review_count":29,"stars":5.0,"state":"NV"}
{"address":"2600 S Rainbow Blvd, Ste 108","attributes":{"AcceptsInsurance":true,"ByAppointmentOnly":true},"business_id":"TeYdiBSLV_z2TXMfWtGncg","categories":["Doctors","Endocrinologists","Internal Medicine","Health & Medical"],"city":"Las Vegas","hours":{},"is_open":1,"latitude":36.1420198,"longitude":-115.242236,"name":"Zahid Hamid,MD","neighborhood":"Westside","postal_code":"89146","review_count":6,"stars":3.5,"state":"NV"}
{"address":"7200 Bd Du Quartier","attributes":{"GoodForKids":true,"HasTV":false,"NoiseLevel":"quiet","RestaurantsAttire":"casual","RestaurantsDelivery":false,"RestaurantsGoodForGroups":false,"RestaurantsPriceRange2":2,"RestaurantsReservations":false,"RestaurantsTakeOut":true},"business_id":"sQtuhDHk4RhA2lJwOxY8hQ","categories":["Restaurants","Sushi Bars"],"city":"Brossard","hours":{},"is_open":1,"latitude":45.4441258943,"longitude":-73.4404997346,"name":"Sushi Shop","neighborhood":"Brossard","postal_code":"J4Y 0A5","review_count":3,"stars":2.0,"state":"QC"}
{"address":"2935 S Fish Hatchery Rd, Ste 3","attributes":{"BusinessAcceptsCreditCards":true},"business_id":"TMd34pqWXg89EYhHoElj8w","categories":["Notaries","Printing Services","Shipping Centers","Local Services"],"city":"Fitchburg","hours":{"Friday":"8:00-19:30","Monday":"8:00-19:30","Saturday":"9:00-16:00","Thursday":"8:00-19:30","Tuesday":"8:00-19:30","Wednesday":"8:00-19:30"},"is_open":1,"latitude":43.0144173,"longitude":-89.4274219,"name":"The UPS Store","neighborhood":"","postal_code":"53711","review_count":10,"stars":3.5,"state":"WI"}
{"address":"8902 E Vía Linda, Ste 110","attributes":{"BikeParking":false,"BusinessAcceptsCreditCards":true,"BusinessParking":{"garage":false,"lot":false,"street":false,"valet":false,"validated":false},"RestaurantsPriceRange2":3,"RestaurantsTakeOut":false},"business_id":"FTlDoGvZ2KFdjDKxvHA8cg","categories":["Food","Chocolatiers & Shops","Specialty Food"],"city":"Scottsdale","hours":{"Friday":"6:00-6:00","Monday":"6:00-6:00","Saturday":"6:00-6:00","Sunday":"6:00-6:00","Thursday":"6:00-6:00","Tuesday":"6:00-6:00","Wednesday":"6:00-6:00"},"is_open":1,"latitude":33.5702184,"longitude":-111.8891943,"name":"Skinny Me Chocolate","neighborhood":"","postal_code":"85258","review_count":8,"stars":1.5,"state":"AZ"}
{"address":"2502 E Camelback Rd, Ste 179","attributes":{"BusinessAcceptsCreditCards":true,"BusinessParking":{"garage":false,"lot":false,"street":false,"valet":false,"validated":false},"RestaurantsPriceRange2":3},"business_id":"Ld62zKGvw2j_N7j6gphJqQ","categories":["Accessories","Shopping","Leather Goods","Fashion"],"city":"Phoenix","hours":{},"is_open":0,"latitude":33.5102068,"longitude":-112.0272041,"name":"Coach","neighborhood":"","postal_code":"85016","review_count":3,"stars":3.0,"state":"AZ"}
